"iata","name","city","country","latitude","longitude","source_type","scheduled_service","proposed_demand_index","proposed_airport_tax","review_note"
"HEA","Herat - Khwaja Abdullah Ansari International Airport","Guzara","Afghanistan","34.209999","62.228298","large_airport","yes","82","1050.00","AUTO_PROPOSED_FROM_OURAIRPORTS_LARGE_SCHEDULED"
"KBL","Kabul International Airport","Kabul","Afghanistan","34.565899","69.212303","large_airport","yes","82","1050.00","AUTO_PROPOSED_FROM_OURAIRPORTS_LARGE_SCHEDULED"
"KDH","Ahmad Shah Baba International Airport","Kandahar","Afghanistan","31.505769","65.847963","large_airport","yes","82","1050.00","AUTO_PROPOSED_FROM_OURAIRPORTS_LARGE_SCHEDULED"
"MZR","Mazar-i-Sharif International Airport","Mazar-i-Sharif","Afghanistan","36.70412","67.210459","large_airport","yes","82","1050.00","AUTO_PROPOSED_FROM_OURAIRPORTS_LARGE_SCHEDULED"
"TIA","Tirana International Airport Mother Teresa","Rinas","Albania","41.4147","19.7206","large_airport","yes","82","1050.00","AUTO_PROPOSED_FROM_OURAIRPORTS_LARGE_SCHEDULED"
"ALG","Houari Boumediene Airport","Algiers","Algeria","36.693886","3.214531","large_airport","yes","82","1050.00","AUTO_PROPOSED_FROM_OURAIRPORTS_LARGE_SCHEDULED"
"AAE","Annaba Rabah Bitat Airport","Annaba","Algeria","36.826781","7.81334","large_airport","yes","82","1050.00","AUTO_PROPOSED_FROM_OURAIRPORTS_LARGE_SCHEDULED"
"BLJ","Batna Mostefa Ben Boulaid Airport","Batna","Algeria","35.752102","6.30859","large_airport","yes","82","1050.00","AUTO_PROPOSED_FROM_OURAIRPORTS_LARGE_SCHEDULED"
"BSK","Biskra - Mohamed Khider Airport","Biskra","Algeria","34.79318","5.738899","large_airport","yes","82","1050.00","AUTO_PROPOSED_FROM_OURAIRPORTS_LARGE_SCHEDULED"
"BJA","Soummam–Abane Ramdane Airport","Béjaïa","Algeria","36.712547","5.069909","large_airport","yes","82","1050.00","AUTO_PROPOSED_FROM_OURAIRPORTS_LARGE_SCHEDULED"
"CFK","Chlef Aboubakr Belkaid International Airport","Chlef","Algeria","36.216614","1.341114","large_airport","yes","82","1050.00","AUTO_PROPOSED_FROM_OURAIRPORTS_LARGE_SCHEDULED"
"CZL","Mohamed Boudiaf International Airport","Constantine","Algeria","36.276001","6.62039","large_airport","yes","82","1050.00","AUTO_PROPOSED_FROM_OURAIRPORTS_LARGE_SCHEDULED"
"DJG","Tiska Djanet Airport","Djanet","Algeria","24.285448","9.463652","large_airport","yes","82","1050.00","AUTO_PROPOSED_FROM_OURAIRPORTS_LARGE_SCHEDULED"
"ORN","Oran Es-Sénia (Ahmed Ben Bella) International Airport","Es-Sénia","Algeria","35.620648","-0.622486","large_airport","yes","82","1050.00","AUTO_PROPOSED_FROM_OURAIRPORTS_LARGE_SCHEDULED"
"GJL","Jijel Ferhat Abbas Airport","Tahir","Algeria","36.794125","5.873652","large_airport","yes","82","1050.00","AUTO_PROPOSED_FROM_OURAIRPORTS_LARGE_SCHEDULED"
"TMR","Aguenar – Hadj Bey Akhamok Airport","Tamanrasset","Algeria","22.810992","5.450832","large_airport","yes","82","1050.00","AUTO_PROPOSED_FROM_OURAIRPORTS_LARGE_SCHEDULED"
"TLM","Zenata – Messali El Hadj Airport","Zenata","Algeria","35.012732","-1.457117","large_airport","yes","82","1050.00","AUTO_PROPOSED_FROM_OURAIRPORTS_LARGE_SCHEDULED"
"PPG","Pago Pago International Airport","Pago Pago","American Samoa","-14.331","-170.710007","large_airport","yes","82","1050.00","AUTO_PROPOSED_FROM_OURAIRPORTS_LARGE_SCHEDULED"
"LAD","Quatro de Fevereiro International Airport","Luanda","Angola","-8.85837","13.2312","large_airport","yes","82","1050.00","AUTO_PROPOSED_FROM_OURAIRPORTS_LARGE_SCHEDULED"
"NBJ","Dr. Antonio Agostinho Neto International Airport","Luanda (Ícolo e Bengo)","Angola","-9.050734","13.499078","large_airport","yes","82","1050.00","AUTO_PROPOSED_FROM_OURAIRPORTS_LARGE_SCHEDULED"
"ANU","V. C. Bird International Airport","Osbourn","Antigua and Barbuda","17.1367","-61.792702","large_airport","yes","82","1050.00","AUTO_PROPOSED_FROM_OURAIRPORTS_LARGE_SCHEDULED"
"AEP","Aeroparque Jorge Newbery","Buenos Aires","Argentina","-34.559419","-58.415536","large_airport","yes","82","1050.00","AUTO_PROPOSED_FROM_OURAIRPORTS_LARGE_SCHEDULED"
"CRD","General Enrique Mosconi International Airport","Comodoro Rivadavia","Argentina","-45.786941","-67.463355","large_airport","yes","82","1050.00","AUTO_PROPOSED_FROM_OURAIRPORTS_LARGE_SCHEDULED"
"COR","Ingeniero Aeronáutico Ambrosio L.V. Taravella International Airport","Cordoba","Argentina","-31.312346","-64.208329","large_airport","yes","82","1050.00","AUTO_PROPOSED_FROM_OURAIRPORTS_LARGE_SCHEDULED"
"FTE","El Calafate - Commander Armando Tola International Airport","El Calafate","Argentina","-50.281997","-72.053949","large_airport","yes","82","1050.00","AUTO_PROPOSED_FROM_OURAIRPORTS_LARGE_SCHEDULED"
"MDZ","Governor Francisco Gabrielli International Airport","Mendoza","Argentina","-32.831699","-68.7929","large_airport","yes","82","1050.00","AUTO_PROPOSED_FROM_OURAIRPORTS_LARGE_SCHEDULED"
"NQN","Presidente Perón International Airport","Neuquén","Argentina","-38.949001","-68.155701","large_airport","yes","82","1050.00","AUTO_PROPOSED_FROM_OURAIRPORTS_LARGE_SCHEDULED"
"RES","Resistencia International Airport","Resistencia","Argentina","-27.44991","-59.056125","large_airport","yes","82","1050.00","AUTO_PROPOSED_FROM_OURAIRPORTS_LARGE_SCHEDULED"
"RGL","Piloto Civil Norberto Fernández International Airport","Rio Gallegos","Argentina","-51.608791","-69.308948","large_airport","yes","82","1050.00","AUTO_PROPOSED_FROM_OURAIRPORTS_LARGE_SCHEDULED"
"ROS","Rosario Islas Malvinas International Airport","Rosario","Argentina","-32.9036","-60.785","large_airport","yes","82","1050.00","AUTO_PROPOSED_FROM_OURAIRPORTS_LARGE_SCHEDULED"
"SLA","Martín Miguel de Güemes International Airport","Salta","Argentina","-24.856001","-65.486198","large_airport","yes","82","1050.00","AUTO_PROPOSED_FROM_OURAIRPORTS_LARGE_SCHEDULED"
"BRC","Teniente Luis Candelaria International Airport","San Carlos de Bariloche","Argentina","-41.151199","-71.157501","large_airport","yes","82","1050.00","AUTO_PROPOSED_FROM_OURAIRPORTS_LARGE_SCHEDULED"
"TUC","Teniente Benjamín Matienzo International Airport","San Miguel de Tucumán","Argentina","-26.837397","-65.104195","large_airport","yes","82","1050.00","AUTO_PROPOSED_FROM_OURAIRPORTS_LARGE_SCHEDULED"
"JUJ","Gobernador Horacio Guzman International Airport","San Salvador de Jujuy","Argentina","-24.392799","-65.097801","large_airport","yes","82","1050.00","AUTO_PROPOSED_FROM_OURAIRPORTS_LARGE_SCHEDULED"
"LWN","Shirak International Airport","Gyumri","Armenia","40.750401","43.859299","large_airport","yes","82","1050.00","AUTO_PROPOSED_FROM_OURAIRPORTS_LARGE_SCHEDULED"
"EVN","Zvartnots International Airport","Yerevan","Armenia","40.148941","44.397887","large_airport","yes","82","1050.00","AUTO_PROPOSED_FROM_OURAIRPORTS_LARGE_SCHEDULED"
"AUA","Queen Beatrix International Airport","Oranjestad","Aruba","12.501056","-70.014281","large_airport","yes","82","1050.00","AUTO_PROPOSED_FROM_OURAIRPORTS_LARGE_SCHEDULED"
"BME","Broome International Airport","Broome","Australia","-17.949194","122.2283","large_airport","yes","82","1050.00","AUTO_PROPOSED_FROM_OURAIRPORTS_LARGE_SCHEDULED"
"CNS","Cairns International Airport","Cairns","Australia","-16.878921","145.74948","large_airport","yes","82","1050.00","AUTO_PROPOSED_FROM_OURAIRPORTS_LARGE_SCHEDULED"
"DRW","Darwin International Airport / RAAF Darwin","Darwin","Australia","-12.41497","130.88185","large_airport","yes","82","1050.00","AUTO_PROPOSED_FROM_OURAIRPORTS_LARGE_SCHEDULED"
"AVV","Melbourne Avalon International Airport","Geelong/Melbourne","Australia","-38.040269","144.467196","large_airport","yes","82","1050.00","AUTO_PROPOSED_FROM_OURAIRPORTS_LARGE_SCHEDULED"
"OOL","Gold Coast Airport","Gold Coast","Australia","-28.165962","153.506641","large_airport","yes","82","1050.00","AUTO_PROPOSED_FROM_OURAIRPORTS_LARGE_SCHEDULED"
"HBA","Hobart International Airport","Hobart (Cambridge)","Australia","-42.837032","147.513022","large_airport","yes","82","1050.00","AUTO_PROPOSED_FROM_OURAIRPORTS_LARGE_SCHEDULED"
"MCY","Sunshine Coast Airport","Maroochydore","Australia","-26.593324","153.08319","large_airport","yes","82","1050.00","AUTO_PROPOSED_FROM_OURAIRPORTS_LARGE_SCHEDULED"
"PHE","Port Hedland International Airport","Port Hedland","Australia","-20.382787","118.629789","large_airport","yes","82","1050.00","AUTO_PROPOSED_FROM_OURAIRPORTS_LARGE_SCHEDULED"
"WSI","[Duplicate] Western Sydney International Airport","Sydney","Australia","-33.88806","150.71472","large_airport","yes","82","1050.00","AUTO_PROPOSED_FROM_OURAIRPORTS_LARGE_SCHEDULED"
"WTB","Toowoomba Wellcamp Airport","Toowoomba","Australia","-27.558332","151.793335","large_airport","yes","82","1050.00","AUTO_PROPOSED_FROM_OURAIRPORTS_LARGE_SCHEDULED"
"NTL","Newcastle Airport","Williamtown","Australia","-32.796114","151.835025","large_airport","yes","82","1050.00","AUTO_PROPOSED_FROM_OURAIRPORTS_LARGE_SCHEDULED"
"GRZ","Graz Airport","Feldkirchen bei Graz","Austria","46.9911","15.4396","large_airport","yes","82","1050.00","AUTO_PROPOSED_FROM_OURAIRPORTS_LARGE_SCHEDULED"
"INN","Innsbruck Airport","Innsbruck","Austria","47.260201","11.344","large_airport","yes","82","1050.00","AUTO_PROPOSED_FROM_OURAIRPORTS_LARGE_SCHEDULED"
"KLU","Klagenfurt Airport","Klagenfurt am Wörthersee","Austria","46.642502","14.3377","large_airport","yes","82","1050.00","AUTO_PROPOSED_FROM_OURAIRPORTS_LARGE_SCHEDULED"
"LNZ","Linz-Hörsching Airport","Linz","Austria","48.235362","14.188128","large_airport","yes","82","1050.00","AUTO_PROPOSED_FROM_OURAIRPORTS_LARGE_SCHEDULED"
"SZG","Salzburg Airport","Salzburg","Austria","47.793301","13.0043","large_airport","yes","82","1050.00","AUTO_PROPOSED_FROM_OURAIRPORTS_LARGE_SCHEDULED"
"GYD","Heydar Aliyev International Airport","Baku","Azerbaijan","40.47278","50.050931","large_airport","yes","82","1050.00","AUTO_PROPOSED_FROM_OURAIRPORTS_LARGE_SCHEDULED"
"GNJ","Ganja International Airport","Ganja","Azerbaijan","40.738692","46.320383","large_airport","yes","82","1050.00","AUTO_PROPOSED_FROM_OURAIRPORTS_LARGE_SCHEDULED"
"NAJ","Nakhchivan International Airport","Nakhchivan","Azerbaijan","39.188801","45.458401","large_airport","yes","82","1050.00","AUTO_PROPOSED_FROM_OURAIRPORTS_LARGE_SCHEDULED"
"FPO","Grand Bahama International Airport","Freeport","Bahamas","26.557996","-78.695583","large_airport","yes","82","1050.00","AUTO_PROPOSED_FROM_OURAIRPORTS_LARGE_SCHEDULED"
"NAS","Lynden Pindling International Airport","Nassau","Bahamas","25.039","-77.466202","large_airport","yes","82","1050.00","AUTO_PROPOSED_FROM_OURAIRPORTS_LARGE_SCHEDULED"
"ZSA","San Salvador International Airport","San Salvador","Bahamas","24.063041","-74.523233","large_airport","yes","82","1050.00","AUTO_PROPOSED_FROM_OURAIRPORTS_LARGE_SCHEDULED"
"CGP","Shah Amanat International Airport","Chattogram (Chittagong)","Bangladesh","22.249599","91.813301","large_airport","yes","82","1050.00","AUTO_PROPOSED_FROM_OURAIRPORTS_LARGE_SCHEDULED"
"DAC","Hazrat Shahjalal International Airport","Dhaka","Bangladesh","23.843347","90.397783","large_airport","yes","82","1050.00","AUTO_PROPOSED_FROM_OURAIRPORTS_LARGE_SCHEDULED"
"ZYL","Osmany International Airport","Sylhet","Bangladesh","24.963071","91.866903","large_airport","yes","82","1050.00","AUTO_PROPOSED_FROM_OURAIRPORTS_LARGE_SCHEDULED"
"BGI","Grantley Adams International Airport","Bridgetown","Barbados","13.074667","-59.491034","large_airport","yes","82","1050.00","AUTO_PROPOSED_FROM_OURAIRPORTS_LARGE_SCHEDULED"
"BQT","Brest International Airport","Brest","Belarus","52.108138","23.89676","large_airport","yes","82","1050.00","AUTO_PROPOSED_FROM_OURAIRPORTS_LARGE_SCHEDULED"
"MSQ","Minsk National Airport","Minsk","Belarus","53.888071","28.039964","large_airport","yes","82","1050.00","AUTO_PROPOSED_FROM_OURAIRPORTS_LARGE_SCHEDULED"
"CRL","Brussels South Charleroi Airport","Charleroi","Belgium","50.461963","4.459562","large_airport","yes","82","1050.00","AUTO_PROPOSED_FROM_OURAIRPORTS_LARGE_SCHEDULED"
"OST","Ostend-Bruges International Airport","Oostende","Belgium","51.1998","2.874673","large_airport","yes","82","1050.00","AUTO_PROPOSED_FROM_OURAIRPORTS_LARGE_SCHEDULED"
"BZE","Philip S. W. Goldson International Airport","Belize City","Belize","17.539951","-88.303556","large_airport","yes","82","1050.00","AUTO_PROPOSED_FROM_OURAIRPORTS_LARGE_SCHEDULED"
"COO","Cotonou Cadjehoun International Airport","Cotonou","Benin","6.35723","2.38435","large_airport","yes","82","1050.00","AUTO_PROPOSED_FROM_OURAIRPORTS_LARGE_SCHEDULED"
"BDA","L.F. Wade International Airport","Hamilton","Bermuda","32.363802","-64.67824","large_airport","yes","82","1050.00","AUTO_PROPOSED_FROM_OURAIRPORTS_LARGE_SCHEDULED"
"PBH","Paro International Airport","Paro","Bhutan","27.4032","89.424599","large_airport","yes","82","1050.00","AUTO_PROPOSED_FROM_OURAIRPORTS_LARGE_SCHEDULED"
"CBB","Jorge Wilsterman International Airport","Cochabamba","Bolivia","-17.421105","-66.177102","large_airport","yes","82","1050.00","AUTO_PROPOSED_FROM_OURAIRPORTS_LARGE_SCHEDULED"
"LPB","El Alto International Airport","La Paz / El Alto","Bolivia","-16.510272","-68.189416","large_airport","yes","82","1050.00","AUTO_PROPOSED_FROM_OURAIRPORTS_LARGE_SCHEDULED"
"ORU","Juan Mendoza International Airport","Oruro","Bolivia","-17.956151","-67.075829","large_airport","yes","82","1050.00","AUTO_PROPOSED_FROM_OURAIRPORTS_LARGE_SCHEDULED"
"UYU","Joya Andina International Airport","Quijarro","Bolivia","-20.441304","-66.857553","large_airport","yes","82","1050.00","AUTO_PROPOSED_FROM_OURAIRPORTS_LARGE_SCHEDULED"
"VVI","Viru Viru International Airport","Santa Cruz","Bolivia","-17.6448","-63.135399","large_airport","yes","82","1050.00","AUTO_PROPOSED_FROM_OURAIRPORTS_LARGE_SCHEDULED"
"SRE","Alcantarí International Airport","Sucre","Bolivia","-19.246835","-65.149611","large_airport","yes","82","1050.00","AUTO_PROPOSED_FROM_OURAIRPORTS_LARGE_SCHEDULED"
"TZL","Tuzla International Airport","Dubrave Gornje","Bosnia and Herzegovina","44.459858","18.723627","large_airport","yes","82","1050.00","AUTO_PROPOSED_FROM_OURAIRPORTS_LARGE_SCHEDULED"
"BNX","Banja Luka International Airport","Mahovljani","Bosnia and Herzegovina","44.941399","17.297501","large_airport","yes","82","1050.00","AUTO_PROPOSED_FROM_OURAIRPORTS_LARGE_SCHEDULED"
"OMO","Mostar International Airport","Mostar","Bosnia and Herzegovina","43.282489","17.846101","large_airport","yes","82","1050.00","AUTO_PROPOSED_FROM_OURAIRPORTS_LARGE_SCHEDULED"
"SJJ","Sarajevo International Airport","Sarajevo","Bosnia and Herzegovina","43.8246","18.331499","large_airport","yes","82","1050.00","AUTO_PROPOSED_FROM_OURAIRPORTS_LARGE_SCHEDULED"
"FRW","Phillip Gaonwe Matante International Airport","Francistown","Botswana","-21.159183","27.468826","large_airport","yes","82","1050.00","AUTO_PROPOSED_FROM_OURAIRPORTS_LARGE_SCHEDULED"
"GBE","Sir Seretse Khama International Airport","Gaborone","Botswana","-24.555201","25.9182","large_airport","yes","82","1050.00","AUTO_PROPOSED_FROM_OURAIRPORTS_LARGE_SCHEDULED"
"BBK","Kasane International Airport","Kasane","Botswana","-17.831653","25.166195","large_airport","yes","82","1050.00","AUTO_PROPOSED_FROM_OURAIRPORTS_LARGE_SCHEDULED"
"MUB","Maun International Airport","Maun","Botswana","-19.970491","23.431409","large_airport","yes","82","1050.00","AUTO_PROPOSED_FROM_OURAIRPORTS_LARGE_SCHEDULED"
"CNF","Tancredo Neves International Airport","Belo Horizonte","Brazil","-19.63571","-43.966928","large_airport","yes","82","1050.00","AUTO_PROPOSED_FROM_OURAIRPORTS_LARGE_SCHEDULED"
"BEL","Val de Cans/Júlio Cezar Ribeiro International Airport","Belém","Brazil","-1.379279","-48.476207","large_airport","yes","82","1050.00","AUTO_PROPOSED_FROM_OURAIRPORTS_LARGE_SCHEDULED"
"BVB","Atlas Brasil Cantanhede International Airport","Boa Vista","Brazil","2.84615","-60.690648","large_airport","yes","82","1050.00","AUTO_PROPOSED_FROM_OURAIRPORTS_LARGE_SCHEDULED"
"BSB","Presidente Juscelino Kubitschek International Airport","Brasília","Brazil","-15.869167","-47.920834","large_airport","yes","82","1050.00","AUTO_PROPOSED_FROM_OURAIRPORTS_LARGE_SCHEDULED"
"VCP","Viracopos International Airport","Campinas","Brazil","-23.007404","-47.134502","large_airport","yes","82","1050.00","AUTO_PROPOSED_FROM_OURAIRPORTS_LARGE_SCHEDULED"
"CGB","Várzea Grande–Marechal Rondon International Airport","Cuiabá","Brazil","-15.6529","-56.116699","large_airport","yes","82","1050.00","AUTO_PROPOSED_FROM_OURAIRPORTS_LARGE_SCHEDULED"
"CWB","Curitiba-Afonso Pena International Airport","Curitiba","Brazil","-25.5285","-49.1758","large_airport","yes","82","1050.00","AUTO_PROPOSED_FROM_OURAIRPORTS_LARGE_SCHEDULED"
"FLN","Hercílio Luz International Airport","Florianópolis","Brazil","-27.670279","-48.552502","large_airport","yes","82","1050.00","AUTO_PROPOSED_FROM_OURAIRPORTS_LARGE_SCHEDULED"
"FOR","Pinto Martins International Airport","Fortaleza","Brazil","-3.775833","-38.532222","large_airport","yes","82","1050.00","AUTO_PROPOSED_FROM_OURAIRPORTS_LARGE_SCHEDULED"
"IGU","Cataratas International Airport","Foz do Iguaçu","Brazil","-25.594167","-54.489444","large_airport","yes","82","1050.00","AUTO_PROPOSED_FROM_OURAIRPORTS_LARGE_SCHEDULED"
"GYN","Santa Genoveva International Airport","Goiânia","Brazil","-16.632","-49.220699","large_airport","yes","82","1050.00","AUTO_PROPOSED_FROM_OURAIRPORTS_LARGE_SCHEDULED"
"JPA","Presidente Castro Pinto International Airport","João Pessoa","Brazil","-7.148691","-34.950554","large_airport","yes","82","1050.00","AUTO_PROPOSED_FROM_OURAIRPORTS_LARGE_SCHEDULED"
"MCZ","Zumbi dos Palmares International Airport","Maceió","Brazil","-9.512559","-35.791839","large_airport","yes","82","1050.00","AUTO_PROPOSED_FROM_OURAIRPORTS_LARGE_SCHEDULED"
"MAO","Eduardo Gomes International Airport","Manaus","Brazil","-3.03861","-60.049702","large_airport","yes","82","1050.00","AUTO_PROPOSED_FROM_OURAIRPORTS_LARGE_SCHEDULED"
"NAT","Rio Grande do Norte/São Gonçalo do Amarante–Governador Aluízio Alves International Airport","Natal","Brazil","-5.769822","-35.36661","large_airport","yes","82","1050.00","AUTO_PROPOSED_FROM_OURAIRPORTS_LARGE_SCHEDULED"
"NVT","Ministro Victor Konder International Airport","Navegantes","Brazil","-26.879431","-48.650979","large_airport","yes","82","1050.00","AUTO_PROPOSED_FROM_OURAIRPORTS_LARGE_SCHEDULED"
"POA","Porto Alegre-Salgado Filho International Airport","Porto Alegre","Brazil","-29.993984","-51.167482","large_airport","yes","82","1050.00","AUTO_PROPOSED_FROM_OURAIRPORTS_LARGE_SCHEDULED"
"BPS","Porto Seguro International Airport","Porto Seguro","Brazil","-16.438426","-39.080584","large_airport","yes","82","1050.00","AUTO_PROPOSED_FROM_OURAIRPORTS_LARGE_SCHEDULED"
"PVH","Governador Jorge Teixeira de Oliveira International Airport","Porto Velho","Brazil","-8.708491","-63.902338","large_airport","yes","82","1050.00","AUTO_PROPOSED_FROM_OURAIRPORTS_LARGE_SCHEDULED"
"REC","Recife/Guararapes - Gilberto Freyre International Airport","Recife","Brazil","-8.12747","-34.922961","large_airport","yes","82","1050.00","AUTO_PROPOSED_FROM_OURAIRPORTS_LARGE_SCHEDULED"
"RBR","Rio Branco-Plácido de Castro International Airport","Rio Branco","Brazil","-9.869031","-67.893984","large_airport","yes","82","1050.00","AUTO_PROPOSED_FROM_OURAIRPORTS_LARGE_SCHEDULED"
"SDU","Santos Dumont Airport","Rio de Janeiro","Brazil","-22.910397","-43.16282","large_airport","yes","82","1050.00","AUTO_PROPOSED_FROM_OURAIRPORTS_LARGE_SCHEDULED"
"SSA","Deputado Luiz Eduardo Magalhães International Airport","Salvador","Brazil","-12.908611","-38.322498","large_airport","yes","82","1050.00","AUTO_PROPOSED_FROM_OURAIRPORTS_LARGE_SCHEDULED"
"SLZ","Marechal Cunha Machado International Airport","São Luís","Brazil","-2.586386","-44.235008","large_airport","yes","82","1050.00","AUTO_PROPOSED_FROM_OURAIRPORTS_LARGE_SCHEDULED"
"CGH","Congonhas–Deputado Freitas Nobre Airport","São Paulo","Brazil","-23.627657","-46.654601","large_airport","yes","82","1050.00","AUTO_PROPOSED_FROM_OURAIRPORTS_LARGE_SCHEDULED"
"VIX","Eurico de Aguiar Salles International Airport","Vitória","Brazil","-20.258","-40.285","large_airport","yes","82","1050.00","AUTO_PROPOSED_FROM_OURAIRPORTS_LARGE_SCHEDULED"
"EIS","Terrance B. Lettsome International Airport","Beef Island","British Virgin Islands","18.445492","-64.541707","large_airport","yes","82","1050.00","AUTO_PROPOSED_FROM_OURAIRPORTS_LARGE_SCHEDULED"
"BOJ","Burgas Airport","Burgas","Bulgaria","42.569917","27.515173","large_airport","yes","82","1050.00","AUTO_PROPOSED_FROM_OURAIRPORTS_LARGE_SCHEDULED"
"PDV","Plovdiv International Airport","Plovdiv","Bulgaria","42.067799","24.8508","large_airport","yes","82","1050.00","AUTO_PROPOSED_FROM_OURAIRPORTS_LARGE_SCHEDULED"
"SOF","Sofia Airport","Sofia","Bulgaria","42.696357","23.417671","large_airport","yes","82","1050.00","AUTO_PROPOSED_FROM_OURAIRPORTS_LARGE_SCHEDULED"
"VAR","Varna Airport","Varna","Bulgaria","43.232101","27.8251","large_airport","yes","82","1050.00","AUTO_PROPOSED_FROM_OURAIRPORTS_LARGE_SCHEDULED"
"BOY","Bobo Dioulasso Airport","Bobo Dioulasso","Burkina Faso","11.1601","-4.33097","large_airport","yes","82","1050.00","AUTO_PROPOSED_FROM_OURAIRPORTS_LARGE_SCHEDULED"
"OUA","Ouagadougou Thomas Sankara International Airport","Ouagadougou","Burkina Faso","12.3532","-1.51242","large_airport","yes","82","1050.00","AUTO_PROPOSED_FROM_OURAIRPORTS_LARGE_SCHEDULED"
"BJM","Bujumbura Melchior Ndadaye International Airport","Bujumbura","Burundi","-3.32402","29.318501","large_airport","yes","82","1050.00","AUTO_PROPOSED_FROM_OURAIRPORTS_LARGE_SCHEDULED"
"KTI","Techo International Airport","Phnom Penh (Boeng Khyang)","Cambodia","11.359987","104.921272","large_airport","yes","82","1050.00","AUTO_PROPOSED_FROM_OURAIRPORTS_LARGE_SCHEDULED"
"SAI","Siem Reap-Angkor International Airport","Siem Reap","Cambodia","13.36974","104.223831","large_airport","yes","82","1050.00","AUTO_PROPOSED_FROM_OURAIRPORTS_LARGE_SCHEDULED"
"DSY","Dara Sakor International Airport","Ta Noun","Cambodia","10.914244","103.226652","large_airport","yes","82","1050.00","AUTO_PROPOSED_FROM_OURAIRPORTS_LARGE_SCHEDULED"
"DLA","Douala International Airport","Douala","Cameroon","4.00608","9.71948","large_airport","yes","82","1050.00","AUTO_PROPOSED_FROM_OURAIRPORTS_LARGE_SCHEDULED"
"GOU","Garoua International Airport","Garoua","Cameroon","9.334785","13.372129","large_airport","yes","82","1050.00","AUTO_PROPOSED_FROM_OURAIRPORTS_LARGE_SCHEDULED"
"NSI","Yaoundé Nsimalen International Airport","Yaoundé","Cameroon","3.72256","11.5533","large_airport","yes","82","1050.00","AUTO_PROPOSED_FROM_OURAIRPORTS_LARGE_SCHEDULED"
"YYC","Calgary International Airport","Calgary","Canada","51.118822","-114.009933","large_airport","yes","82","1050.00","AUTO_PROPOSED_FROM_OURAIRPORTS_LARGE_SCHEDULED"
"YEG","Edmonton International Airport","Edmonton","Canada","53.3097","-113.580002","large_airport","yes","82","1050.00","AUTO_PROPOSED_FROM_OURAIRPORTS_LARGE_SCHEDULED"
"YHZ","Halifax / Stanfield International Airport","Halifax","Canada","44.8807983398","-63.5085983276","large_airport","yes","82","1050.00","AUTO_PROPOSED_FROM_OURAIRPORTS_LARGE_SCHEDULED"
"YLW","Kelowna International Airport","Kelowna","Canada","49.9561","-119.377998","large_airport","yes","82","1050.00","AUTO_PROPOSED_FROM_OURAIRPORTS_LARGE_SCHEDULED"
"YOW","Ottawa Macdonald-Cartier International Airport","Ottawa","Canada","45.322498","-75.669197","large_airport","yes","82","1050.00","AUTO_PROPOSED_FROM_OURAIRPORTS_LARGE_SCHEDULED"
"YQB","Quebec Jean Lesage International Airport","Quebec","Canada","46.7911","-71.393303","large_airport","yes","82","1050.00","AUTO_PROPOSED_FROM_OURAIRPORTS_LARGE_SCHEDULED"
"YXE","Saskatoon John G. Diefenbaker International Airport","Saskatoon","Canada","52.170723","-106.700793","large_airport","yes","82","1050.00","AUTO_PROPOSED_FROM_OURAIRPORTS_LARGE_SCHEDULED"
"YYT","St. John's International Airport","St. John's","Canada","47.618599","-52.7519","large_airport","yes","82","1050.00","AUTO_PROPOSED_FROM_OURAIRPORTS_LARGE_SCHEDULED"
"YYJ","Victoria International Airport","Victoria","Canada","48.647201","-123.427792","large_airport","yes","82","1050.00","AUTO_PROPOSED_FROM_OURAIRPORTS_LARGE_SCHEDULED"
"YWG","Winnipeg / James Armstrong Richardson International Airport","Winnipeg","Canada","49.909999847399995","-97.2398986816","large_airport","yes","82","1050.00","AUTO_PROPOSED_FROM_OURAIRPORTS_LARGE_SCHEDULED"
"SID","Amílcar Cabral International Airport","Espargos","Cape Verde","16.7414","-22.9494","large_airport","yes","82","1050.00","AUTO_PROPOSED_FROM_OURAIRPORTS_LARGE_SCHEDULED"
"RAI","Nelson Mandela International Airport","Praia","Cape Verde","14.941126","-23.484728","large_airport","yes","82","1050.00","AUTO_PROPOSED_FROM_OURAIRPORTS_LARGE_SCHEDULED"
"BVC","Aristides Pereira International Airport","Rabil","Cape Verde","16.136499","-22.888901","large_airport","yes","82","1050.00","AUTO_PROPOSED_FROM_OURAIRPORTS_LARGE_SCHEDULED"
"VXE","Cesaria Evora International Airport","São Pedro","Cape Verde","16.833363","-25.055308","large_airport","yes","82","1050.00","AUTO_PROPOSED_FROM_OURAIRPORTS_LARGE_SCHEDULED"
"BON","Flamingo International Airport","Kralendijk","Caribbean Netherlands","12.131","-68.268501","large_airport","yes","82","1050.00","AUTO_PROPOSED_FROM_OURAIRPORTS_LARGE_SCHEDULED"
"GCM","Owen Roberts International Airport","George Town","Cayman Islands","19.292801","-81.357697","large_airport","yes","82","1050.00","AUTO_PROPOSED_FROM_OURAIRPORTS_LARGE_SCHEDULED"
"BGF","Bangui M'Poko International Airport","Bangui","Central African Republic","4.39848","18.518801","large_airport","yes","82","1050.00","AUTO_PROPOSED_FROM_OURAIRPORTS_LARGE_SCHEDULED"
"NDJ","N'Djamena International Airport","N'Djamena","Chad","12.1337","15.034","large_airport","yes","82","1050.00","AUTO_PROPOSED_FROM_OURAIRPORTS_LARGE_SCHEDULED"
"ANF","Andrés Sabella Gálvez International Airport","Antofagasta","Chile","-23.445274","-70.445232","large_airport","yes","82","1050.00","AUTO_PROPOSED_FROM_OURAIRPORTS_LARGE_SCHEDULED"
"CCP","Carriel Sur International Airport","Concepcion","Chile","-36.77235","-73.062828","large_airport","yes","82","1050.00","AUTO_PROPOSED_FROM_OURAIRPORTS_LARGE_SCHEDULED"
"IQQ","Diego Aracena International Airport","Iquique","Chile","-20.536273","-70.181373","large_airport","yes","82","1050.00","AUTO_PROPOSED_FROM_OURAIRPORTS_LARGE_SCHEDULED"
"IPC","Mataveri International Airport","Isla De Pascua","Chile","-27.165411","-109.421027","large_airport","yes","82","1050.00","AUTO_PROPOSED_FROM_OURAIRPORTS_LARGE_SCHEDULED"
"PMC","El Tepual International Airport","Puerto Montt","Chile","-41.443093","-73.094065","large_airport","yes","82","1050.00","AUTO_PROPOSED_FROM_OURAIRPORTS_LARGE_SCHEDULED"
"PUQ","President Carlos Ibáñez International Airport","Punta Arenas","Chile","-53.002602","-70.854599","large_airport","yes","82","1050.00","AUTO_PROPOSED_FROM_OURAIRPORTS_LARGE_SCHEDULED"
"ZCO","La Araucanía International Airport","Temuco","Chile","-38.9259","-72.6515","large_airport","yes","82","1050.00","AUTO_PROPOSED_FROM_OURAIRPORTS_LARGE_SCHEDULED"
"BAV","Baotou Donghe International Airport","Baotou","China","40.560001","109.997002","large_airport","yes","82","1050.00","AUTO_PROPOSED_FROM_OURAIRPORTS_LARGE_SCHEDULED"
"CGQ","Changchun Longjia International Airport","Changchun","China","43.996201","125.684998","large_airport","yes","82","1050.00","AUTO_PROPOSED_FROM_OURAIRPORTS_LARGE_SCHEDULED"
"CSX","Changsha Huanghua International Airport","Changsha (Changsha)","China","28.189199","113.220001","large_airport","yes","82","1050.00","AUTO_PROPOSED_FROM_OURAIRPORTS_LARGE_SCHEDULED"
"TFU","Chengdu Tianfu International Airport","Chengdu (Jianyang)","China","30.31252","104.441284","large_airport","yes","82","1050.00","AUTO_PROPOSED_FROM_OURAIRPORTS_LARGE_SCHEDULED"
"DLC","Dalian Zhoushuizi International Airport","Dalian (Ganjingzi)","China","38.965719","121.538477","large_airport","yes","82","1050.00","AUTO_PROPOSED_FROM_OURAIRPORTS_LARGE_SCHEDULED"
"DAT","Datong Yungang International Airport","Datong","China","40.06139","113.480509","large_airport","yes","82","1050.00","AUTO_PROPOSED_FROM_OURAIRPORTS_LARGE_SCHEDULED"
"DNH","Dunhuang Mogao International Airport","Dunhuang","China","40.161953","94.812827","large_airport","yes","82","1050.00","AUTO_PROPOSED_FROM_OURAIRPORTS_LARGE_SCHEDULED"
"EHU","Ezhou Huahu International Airport","Ezhou","China","30.341178","115.03926","large_airport","yes","82","1050.00","AUTO_PROPOSED_FROM_OURAIRPORTS_LARGE_SCHEDULED"
"FOC","Fuzhou Changle International Airport","Fuzhou (Changle)","China","25.929254","119.672524","large_airport","yes","82","1050.00","AUTO_PROPOSED_FROM_OURAIRPORTS_LARGE_SCHEDULED"
"KWL","Guilin Liangjiang International Airport","Guilin (Lingui)","China","25.219828","110.039553","large_airport","yes","82","1050.00","AUTO_PROPOSED_FROM_OURAIRPORTS_LARGE_SCHEDULED"
"KWE","Guiyang Longdongbao International Airport","Guiyang (Nanming)","China","26.541805","106.80402","large_airport","yes","82","1050.00","AUTO_PROPOSED_FROM_OURAIRPORTS_LARGE_SCHEDULED"
"XNN","Xining Caojiabao International Airport","Haidong (Huzhu Tu Autonomous County)","China","36.52775","102.040215","large_airport","yes","82","1050.00","AUTO_PROPOSED_FROM_OURAIRPORTS_LARGE_SCHEDULED"
"HAK","Haikou Meilan International Airport","Haikou (Meilan)","China","19.9349","110.459","large_airport","yes","82","1050.00","AUTO_PROPOSED_FROM_OURAIRPORTS_LARGE_SCHEDULED"
"HLD","Hulunbuir Hailar Airport","Hailar","China","49.208616","119.822301","large_airport","yes","82","1050.00","AUTO_PROPOSED_FROM_OURAIRPORTS_LARGE_SCHEDULED"
"HRB","Harbin Taiping International Airport","Harbin","China","45.623402","126.25","large_airport","yes","82","1050.00","AUTO_PROPOSED_FROM_OURAIRPORTS_LARGE_SCHEDULED"
"HFE","Hefei Xinqiao International Airport","Hefei","China","31.98779","116.9769","large_airport","yes","82","1050.00","AUTO_PROPOSED_FROM_OURAIRPORTS_LARGE_SCHEDULED"
"HET","Hohhot Baita International Airport","Hohhot","China","40.849658","111.824598","large_airport","yes","82","1050.00","AUTO_PROPOSED_FROM_OURAIRPORTS_LARGE_SCHEDULED"
"HIA","Huai'an Lianshui Airport","Huai'an","China","33.792712","119.126657","large_airport","yes","82","1050.00","AUTO_PROPOSED_FROM_OURAIRPORTS_LARGE_SCHEDULED"
"TXN","Huangshan Tunxi International Airport","Huangshan","China","29.733299","118.255997","large_airport","yes","82","1050.00","AUTO_PROPOSED_FROM_OURAIRPORTS_LARGE_SCHEDULED"
"JGN","Jiayuguan International Airport","Jiayuguan","China","39.859052","98.339344","large_airport","yes","82","1050.00","AUTO_PROPOSED_FROM_OURAIRPORTS_LARGE_SCHEDULED"
"SWA","Jieyang Chaoshan International Airport","Jieyang (Rongcheng)","China","23.552","116.5033","large_airport","yes","82","1050.00","AUTO_PROPOSED_FROM_OURAIRPORTS_LARGE_SCHEDULED"
"TNA","Jinan Yaoqiang International Airport","Jinan (Licheng)","China","36.857201","117.216003","large_airport","yes","82","1050.00","AUTO_PROPOSED_FROM_OURAIRPORTS_LARGE_SCHEDULED"
"JHG","Xishuangbanna Gasa International Airport","Jinghong (Gasa)","China","21.974648","100.762224","large_airport","yes","82","1050.00","AUTO_PROPOSED_FROM_OURAIRPORTS_LARGE_SCHEDULED"
"KHG","Kashgar Laining International Airport","Kashgar","China","39.542273","76.02023","large_airport","yes","82","1050.00","AUTO_PROPOSED_FROM_OURAIRPORTS_LARGE_SCHEDULED"
"LHW","Lanzhou Zhongchuan International Airport","Lanzhou (Yongdeng)","China","36.515202","103.620003","large_airport","yes","82","1050.00","AUTO_PROPOSED_FROM_OURAIRPORTS_LARGE_SCHEDULED"
"LYG","Lianyungang Huaguoshan International Airport","Lianyungang","China","34.41406","119.17899","large_airport","yes","82","1050.00","AUTO_PROPOSED_FROM_OURAIRPORTS_LARGE_SCHEDULED"
"LJG","Lijiang Sanyi International Airport","Lijiang","China","26.677483","100.244944","large_airport","yes","82","1050.00","AUTO_PROPOSED_FROM_OURAIRPORTS_LARGE_SCHEDULED"
"LYA","Luoyang Beijiao Airport","Luoyang (Laocheng)","China","34.7411","112.388","large_airport","yes","82","1050.00","AUTO_PROPOSED_FROM_OURAIRPORTS_LARGE_SCHEDULED"
"KHN","Nanchang Changbei International Airport","Nanchang","China","28.864815","115.90271","large_airport","yes","82","1050.00","AUTO_PROPOSED_FROM_OURAIRPORTS_LARGE_SCHEDULED"
"NNG","Nanning Wuxu International Airport","Nanning (Jiangnan)","China","22.598071","108.181922","large_airport","yes","82","1050.00","AUTO_PROPOSED_FROM_OURAIRPORTS_LARGE_SCHEDULED"
"NGB","Ningbo Lishe International Airport","Ningbo","China","29.82670021057129","121.46199798583984","large_airport","yes","82","1050.00","AUTO_PROPOSED_FROM_OURAIRPORTS_LARGE_SCHEDULED"
"DSN","Ordos Ejin Horo International Airport","Ordos","China","39.493514","109.8599","large_airport","yes","82","1050.00","AUTO_PROPOSED_FROM_OURAIRPORTS_LARGE_SCHEDULED"
"TAO","Qingdao Jiaodong International Airport","Qingdao (Jiaozhou)","China","36.361953","120.088171","large_airport","yes","82","1050.00","AUTO_PROPOSED_FROM_OURAIRPORTS_LARGE_SCHEDULED"
"NDG","Qiqihar Sanjiazi Airport","Qiqihar","China","47.229969","123.914179","large_airport","yes","82","1050.00","AUTO_PROPOSED_FROM_OURAIRPORTS_LARGE_SCHEDULED"
"JJN","Quanzhou Jinjiang International Airport","Quanzhou","China","24.795855","118.588599","large_airport","yes","82","1050.00","AUTO_PROPOSED_FROM_OURAIRPORTS_LARGE_SCHEDULED"
"SYX","Sanya Phoenix International Airport","Sanya (Tianya)","China","18.3029","109.412003","large_airport","yes","82","1050.00","AUTO_PROPOSED_FROM_OURAIRPORTS_LARGE_SCHEDULED"
"LXA","Lhasa Gonggar International Airport","Shannan (Gonggar)","China","29.298001","90.911951","large_airport","yes","82","1050.00","AUTO_PROPOSED_FROM_OURAIRPORTS_LARGE_SCHEDULED"
"SHE","Shenyang Taoxian International Airport","Shenyang","China","41.6398","123.483668","large_airport","yes","82","1050.00","AUTO_PROPOSED_FROM_OURAIRPORTS_LARGE_SCHEDULED"
"SJW","Shijiazhuang Zhengding International Airport","Shijiazhuang","China","38.280701","114.696999","large_airport","yes","82","1050.00","AUTO_PROPOSED_FROM_OURAIRPORTS_LARGE_SCHEDULED"
"TYN","Taiyuan Wusu International Airport","Taiyuan","China","37.746899","112.627998","large_airport","yes","82","1050.00","AUTO_PROPOSED_FROM_OURAIRPORTS_LARGE_SCHEDULED"
"TSN","Tianjin Binhai International Airport","Tianjin","China","39.124401092499994","117.346000671","large_airport","yes","82","1050.00","AUTO_PROPOSED_FROM_OURAIRPORTS_LARGE_SCHEDULED"
"WNZ","Wenzhou Longwan International Airport","Wenzhou (Longwan)","China","27.910572","120.853465","large_airport","yes","82","1050.00","AUTO_PROPOSED_FROM_OURAIRPORTS_LARGE_SCHEDULED"
"WUX","Sunan Shuofang International Airport","Wuxi","China","31.496952","120.43038","large_airport","yes","82","1050.00","AUTO_PROPOSED_FROM_OURAIRPORTS_LARGE_SCHEDULED"
"XMN","Xiamen Gaoqi International Airport","Xiamen","China","24.543889","118.127454","large_airport","yes","82","1050.00","AUTO_PROPOSED_FROM_OURAIRPORTS_LARGE_SCHEDULED"
"RKZ","Xigaze Peace Airport / Shigatse Air Base","Xigazê (Samzhubzê)","China","29.350876","89.299157","large_airport","yes","82","1050.00","AUTO_PROPOSED_FROM_OURAIRPORTS_LARGE_SCHEDULED"
"YNZ","Yancheng Nanyang International Airport","Yancheng (Tinghu)","China","33.428317","120.20545","large_airport","yes","82","1050.00","AUTO_PROPOSED_FROM_OURAIRPORTS_LARGE_SCHEDULED"
"YNT","Yantai Penglai International Airport","Yantai","China","37.659724","120.978124","large_airport","yes","82","1050.00","AUTO_PROPOSED_FROM_OURAIRPORTS_LARGE_SCHEDULED"
"INC","Yinchuan Hedong International Airport","Yinchuan","China","38.322758","106.393214","large_airport","yes","82","1050.00","AUTO_PROPOSED_FROM_OURAIRPORTS_LARGE_SCHEDULED"
"YIW","Yiwu Airport","Yiwu/Jinhua","China","29.342095","120.03116","large_airport","yes","82","1050.00","AUTO_PROPOSED_FROM_OURAIRPORTS_LARGE_SCHEDULED"
"YCU","Yuncheng Yanhu International Airport","Yuncheng (Yanhu)","China","35.117823","111.034023","large_airport","yes","82","1050.00","AUTO_PROPOSED_FROM_OURAIRPORTS_LARGE_SCHEDULED"
"DYG","Zhangjiajie Hehua International Airport","Zhangjiajie (Yongding)","China","29.104749","110.442786","large_airport","yes","82","1050.00","AUTO_PROPOSED_FROM_OURAIRPORTS_LARGE_SCHEDULED"
"ZHA","Zhanjiang Wuchuan International Airport","Zhanjiang","China","21.481667","110.590278","large_airport","yes","82","1050.00","AUTO_PROPOSED_FROM_OURAIRPORTS_LARGE_SCHEDULED"
"CGO","Zhengzhou Xinzheng International Airport","Zhengzhou","China","34.526497","113.849165","large_airport","yes","82","1050.00","AUTO_PROPOSED_FROM_OURAIRPORTS_LARGE_SCHEDULED"
"HSN","Zhoushan Putuoshan International Airport","Zhoushan","China","29.933874","122.362307","large_airport","yes","82","1050.00","AUTO_PROPOSED_FROM_OURAIRPORTS_LARGE_SCHEDULED"
"ZUH","Zhuhai Jinwan Airport","Zhuhai (Jinwan)","China","22.006399","113.375999","large_airport","yes","82","1050.00","AUTO_PROPOSED_FROM_OURAIRPORTS_LARGE_SCHEDULED"
"URC","Ürümqi Tianshan International Airport","Ürümqi","China","43.913584","87.479372","large_airport","yes","82","1050.00","AUTO_PROPOSED_FROM_OURAIRPORTS_LARGE_SCHEDULED"
"CCK","Cocos (Keeling) Islands Airport","West Island","Cocos (Keeling) Islands","-12.192218","96.834103","large_airport","yes","82","1050.00","AUTO_PROPOSED_FROM_OURAIRPORTS_LARGE_SCHEDULED"
"BAQ","Ernesto Cortissoz International Airport","Barranquilla","Colombia","10.8896","-74.7808","large_airport","yes","82","1050.00","AUTO_PROPOSED_FROM_OURAIRPORTS_LARGE_SCHEDULED"
"CLO","Alfonso Bonilla Aragon International Airport","Cali","Colombia","3.542717","-76.381898","large_airport","yes","82","1050.00","AUTO_PROPOSED_FROM_OURAIRPORTS_LARGE_SCHEDULED"
"CTG","Rafael Nuñez International Airport","Cartagena","Colombia","10.4424","-75.513","large_airport","yes","82","1050.00","AUTO_PROPOSED_FROM_OURAIRPORTS_LARGE_SCHEDULED"
"MDE","Jose Maria Córdova International Airport","Medellín","Colombia","6.16454","-75.4231","large_airport","yes","82","1050.00","AUTO_PROPOSED_FROM_OURAIRPORTS_LARGE_SCHEDULED"
"ADZ","Gustavo Rojas Pinilla International Airport","San Andrés","Colombia","12.5836","-81.7112","large_airport","yes","82","1050.00","AUTO_PROPOSED_FROM_OURAIRPORTS_LARGE_SCHEDULED"
"HAH","Prince Said Ibrahim International Airport","Moroni","Comoros","-11.5337","43.2719","large_airport","yes","82","1050.00","AUTO_PROPOSED_FROM_OURAIRPORTS_LARGE_SCHEDULED"
"RAR","Rarotonga International Airport","Avarua","Cook Islands","-21.2027","-159.806","large_airport","yes","82","1050.00","AUTO_PROPOSED_FROM_OURAIRPORTS_LARGE_SCHEDULED"
"LIR","Daniel Oduber Quirós International Airport","Liberia","Costa Rica","10.5933","-85.544403","large_airport","yes","82","1050.00","AUTO_PROPOSED_FROM_OURAIRPORTS_LARGE_SCHEDULED"
"SJO","Juan Santamaría International Airport","San José (Alajuela)","Costa Rica","9.99386","-84.208801","large_airport","yes","82","1050.00","AUTO_PROPOSED_FROM_OURAIRPORTS_LARGE_SCHEDULED"
"DBV","Dubrovnik Ruđer Bošković Airport","Dubrovnik","Croatia","42.562247","18.265543","large_airport","yes","82","1050.00","AUTO_PROPOSED_FROM_OURAIRPORTS_LARGE_SCHEDULED"
"PUY","Pula Airport","Pula","Croatia","44.893501","13.9222","large_airport","yes","82","1050.00","AUTO_PROPOSED_FROM_OURAIRPORTS_LARGE_SCHEDULED"
"RJK","Rijeka Airport","Rijeka(Omišalj)","Croatia","45.216376","14.57085","large_airport","yes","82","1050.00","AUTO_PROPOSED_FROM_OURAIRPORTS_LARGE_SCHEDULED"
"SPU","Split Saint Jerome Airport","Split","Croatia","43.538898","16.298","large_airport","yes","82","1050.00","AUTO_PROPOSED_FROM_OURAIRPORTS_LARGE_SCHEDULED"
"ZAG","Zagreb Franjo Tuđman International Airport","Velika Gorica","Croatia","45.742901","16.0688","large_airport","yes","82","1050.00","AUTO_PROPOSED_FROM_OURAIRPORTS_LARGE_SCHEDULED"
"ZAD","Zadar Airport","Zadar","Croatia","44.096986","15.353565","large_airport","yes","82","1050.00","AUTO_PROPOSED_FROM_OURAIRPORTS_LARGE_SCHEDULED"
"CMW","Ignacio Agramonte International Airport","Camaguey","Cuba","21.419909","-77.848039","large_airport","yes","82","1050.00","AUTO_PROPOSED_FROM_OURAIRPORTS_LARGE_SCHEDULED"
"HAV","José Martí International Airport","Havana","Cuba","22.989200592041016","-82.40910339355469","large_airport","yes","82","1050.00","AUTO_PROPOSED_FROM_OURAIRPORTS_LARGE_SCHEDULED"
"HOG","Frank Pais International Airport","Holguin","Cuba","20.785148","-76.315526","large_airport","yes","82","1050.00","AUTO_PROPOSED_FROM_OURAIRPORTS_LARGE_SCHEDULED"
"VRA","Juan Gualberto Gomez International Airport","Matanzas","Cuba","23.034401","-81.435303","large_airport","yes","82","1050.00","AUTO_PROPOSED_FROM_OURAIRPORTS_LARGE_SCHEDULED"
"SNU","Abel Santamaria International Airport","Santa Clara","Cuba","22.492215","-79.943119","large_airport","yes","82","1050.00","AUTO_PROPOSED_FROM_OURAIRPORTS_LARGE_SCHEDULED"
"SCU","Antonio Maceo International Airport","Santiago","Cuba","19.97474","-75.835504","large_airport","yes","82","1050.00","AUTO_PROPOSED_FROM_OURAIRPORTS_LARGE_SCHEDULED"
"CUR","Hato International Airport","Willemstad","Curaçao","12.1889","-68.959801","large_airport","yes","82","1050.00","AUTO_PROPOSED_FROM_OURAIRPORTS_LARGE_SCHEDULED"
"LCA","Larnaca International Airport","Larnaca","Cyprus","34.875099","33.624901","large_airport","yes","82","1050.00","AUTO_PROPOSED_FROM_OURAIRPORTS_LARGE_SCHEDULED"
"PFO","Paphos International Airport","Paphos","Cyprus","34.717999","32.485699","large_airport","yes","82","1050.00","AUTO_PROPOSED_FROM_OURAIRPORTS_LARGE_SCHEDULED"
"ECN","Ercan International Airport","Tymbou (Kirklar)","Cyprus","35.153064","33.507352","large_airport","yes","82","1050.00","AUTO_PROPOSED_FROM_OURAIRPORTS_LARGE_SCHEDULED"
"KLV","Karlovy Vary Airport","Karlovy Vary","Czech Republic","50.202999","12.915","large_airport","yes","82","1050.00","AUTO_PROPOSED_FROM_OURAIRPORTS_LARGE_SCHEDULED"
"OSR","Leoš Janáček Airport Ostrava","Mošnov","Czech Republic","49.696301","18.111099","large_airport","yes","82","1050.00","AUTO_PROPOSED_FROM_OURAIRPORTS_LARGE_SCHEDULED"
"PED","Pardubice Airport","Pardubice","Czech Republic","50.015049","15.73981","large_airport","yes","82","1050.00","AUTO_PROPOSED_FROM_OURAIRPORTS_LARGE_SCHEDULED"
"JCL","České Budějovice South Bohemian Airport","České Budějovice","Czech Republic","48.948171","14.42832","large_airport","yes","82","1050.00","AUTO_PROPOSED_FROM_OURAIRPORTS_LARGE_SCHEDULED"
"ABJ","Félix-Houphouët-Boigny International Airport","Abidjan","Côte d'Ivoire","5.26139","-3.92629","large_airport","yes","82","1050.00","AUTO_PROPOSED_FROM_OURAIRPORTS_LARGE_SCHEDULED"
"GOM","Goma International Airport","Goma","Democratic Republic of the Congo","-1.666758","29.238037","large_airport","yes","82","1050.00","AUTO_PROPOSED_FROM_OURAIRPORTS_LARGE_SCHEDULED"
"FIH","Ndjili International Airport","Kinshasa","Democratic Republic of the Congo","-4.38575","15.4446","large_airport","yes","82","1050.00","AUTO_PROPOSED_FROM_OURAIRPORTS_LARGE_SCHEDULED"
"FKI","Bangoka International Airport","Kisangani","Democratic Republic of the Congo","0.481639","25.337999","large_airport","yes","82","1050.00","AUTO_PROPOSED_FROM_OURAIRPORTS_LARGE_SCHEDULED"
"FBM","Lubumbashi International Airport","Lubumbashi","Democratic Republic of the Congo","-11.591494","27.530753","large_airport","yes","82","1050.00","AUTO_PROPOSED_FROM_OURAIRPORTS_LARGE_SCHEDULED"
"AAL","Aalborg Airport","Aalborg","Denmark","57.094763","9.84993","large_airport","yes","82","1050.00","AUTO_PROPOSED_FROM_OURAIRPORTS_LARGE_SCHEDULED"
"AAR","Aarhus Airport","Aarhus","Denmark","56.303331","10.618286","large_airport","yes","82","1050.00","AUTO_PROPOSED_FROM_OURAIRPORTS_LARGE_SCHEDULED"
"BLL","Billund Airport","Billund","Denmark","55.740335","9.157019","large_airport","yes","82","1050.00","AUTO_PROPOSED_FROM_OURAIRPORTS_LARGE_SCHEDULED"
"ODE","Odense Hans Christian Andersen Airport","Odense","Denmark","55.475307","10.327206","large_airport","yes","82","1050.00","AUTO_PROPOSED_FROM_OURAIRPORTS_LARGE_SCHEDULED"
"JIB","Djibouti-Ambouli Airport","Djibouti City","Djibouti","11.5473","43.1595","large_airport","yes","82","1050.00","AUTO_PROPOSED_FROM_OURAIRPORTS_LARGE_SCHEDULED"
"LRM","Casa De Campo International Airport","La Romana","Dominican Republic","18.452222","-68.911111","large_airport","yes","82","1050.00","AUTO_PROPOSED_FROM_OURAIRPORTS_LARGE_SCHEDULED"
"PUJ","Punta Cana International Airport","Punta Cana","Dominican Republic","18.567093","-68.364558","large_airport","yes","82","1050.00","AUTO_PROPOSED_FROM_OURAIRPORTS_LARGE_SCHEDULED"
"STI","Cibao International Airport","Santiago","Dominican Republic","19.40406","-70.604431","large_airport","yes","82","1050.00","AUTO_PROPOSED_FROM_OURAIRPORTS_LARGE_SCHEDULED"
"SDQ","Las Américas International Airport","Santo Domingo","Dominican Republic","18.42970085144","-69.668899536133","large_airport","yes","82","1050.00","AUTO_PROPOSED_FROM_OURAIRPORTS_LARGE_SCHEDULED"
"GYE","José Joaquín de Olmedo International Airport","Guayaquil","Ecuador","-2.15742","-79.883598","large_airport","yes","82","1050.00","AUTO_PROPOSED_FROM_OURAIRPORTS_LARGE_SCHEDULED"
"UIO","Mariscal Sucre International Airport","Quito","Ecuador","-0.125399","-78.354306","large_airport","yes","82","1050.00","AUTO_PROPOSED_FROM_OURAIRPORTS_LARGE_SCHEDULED"
"SNC","General Ulpiano Paez International Airport","Salinas/La Libertad","Ecuador","-2.210057","-80.985067","large_airport","yes","82","1050.00","AUTO_PROPOSED_FROM_OURAIRPORTS_LARGE_SCHEDULED"
"ESM","Carlos Concha Torres International Airport","Tachina","Ecuador","0.978519","-79.626602","large_airport","yes","82","1050.00","AUTO_PROPOSED_FROM_OURAIRPORTS_LARGE_SCHEDULED"
"SPX","Sphinx International Airport","Al Jiza","Egypt","30.108179","30.895728","large_airport","yes","82","1050.00","AUTO_PROPOSED_FROM_OURAIRPORTS_LARGE_SCHEDULED"
"HBE","Alexandria International Airport","Alexandria","Egypt","30.93249","29.696437","large_airport","yes","82","1050.00","AUTO_PROPOSED_FROM_OURAIRPORTS_LARGE_SCHEDULED"
"ASW","Aswan International Airport","Aswan","Egypt","23.961075","32.820382","large_airport","yes","82","1050.00","AUTO_PROPOSED_FROM_OURAIRPORTS_LARGE_SCHEDULED"
"ATZ","Asyut International Airport","Asyut","Egypt","27.045962","31.01276","large_airport","yes","82","1050.00","AUTO_PROPOSED_FROM_OURAIRPORTS_LARGE_SCHEDULED"
"DBB","El Alamein International Airport","El Alamein","Egypt","30.924324","28.46161","large_airport","yes","82","1050.00","AUTO_PROPOSED_FROM_OURAIRPORTS_LARGE_SCHEDULED"
"AAC","El Arish International Airport","El Arish","Egypt","31.055324","33.827964","large_airport","yes","82","1050.00","AUTO_PROPOSED_FROM_OURAIRPORTS_LARGE_SCHEDULED"
"HRG","Hurghada International Airport","Hurghada","Egypt","27.176776","33.796692","large_airport","yes","82","1050.00","AUTO_PROPOSED_FROM_OURAIRPORTS_LARGE_SCHEDULED"
"LXR","Luxor International Airport","Luxor","Egypt","25.671018","32.706446","large_airport","yes","82","1050.00","AUTO_PROPOSED_FROM_OURAIRPORTS_LARGE_SCHEDULED"
"RMF","Marsa Alam International Airport","Marsa Alam","Egypt","25.555548","34.59245","large_airport","yes","82","1050.00","AUTO_PROPOSED_FROM_OURAIRPORTS_LARGE_SCHEDULED"
"MUH","Mersa Matruh International Airport","Marsa Matruh","Egypt","31.324313","27.22227","large_airport","yes","82","1050.00","AUTO_PROPOSED_FROM_OURAIRPORTS_LARGE_SCHEDULED"
"PSD","Port Said International Airport","Port Said","Egypt","31.279285","32.240582","large_airport","yes","82","1050.00","AUTO_PROPOSED_FROM_OURAIRPORTS_LARGE_SCHEDULED"
"SSH","Sharm El Sheikh International Airport","Sharm El Sheikh","Egypt","27.977272","34.394717","large_airport","yes","82","1050.00","AUTO_PROPOSED_FROM_OURAIRPORTS_LARGE_SCHEDULED"
"HMB","Sohag International Airport","Suhaj","Egypt","26.342515","31.743017","large_airport","yes","82","1050.00","AUTO_PROPOSED_FROM_OURAIRPORTS_LARGE_SCHEDULED"
"SAL","El Salvador International Airport Saint Óscar Arnulfo Romero y Galdámez","San Salvador (San Luis Talpa)","El Salvador","13.44447","-89.055784","large_airport","yes","82","1050.00","AUTO_PROPOSED_FROM_OURAIRPORTS_LARGE_SCHEDULED"
"BSG","Bata International Airport","Bata","Equatorial Guinea","1.90547","9.80568","large_airport","yes","82","1050.00","AUTO_PROPOSED_FROM_OURAIRPORTS_LARGE_SCHEDULED"
"OCS","Corisco International Airport","Corisco Island","Equatorial Guinea","0.910937","9.33027","large_airport","yes","82","1050.00","AUTO_PROPOSED_FROM_OURAIRPORTS_LARGE_SCHEDULED"
"SSG","Malabo International Airport","Malabo","Equatorial Guinea","3.75527","8.70872","large_airport","yes","82","1050.00","AUTO_PROPOSED_FROM_OURAIRPORTS_LARGE_SCHEDULED"
"TLL","Lennart Meri Tallinn Airport","Tallinn","Estonia","59.413246","24.83264","large_airport","yes","82","1050.00","AUTO_PROPOSED_FROM_OURAIRPORTS_LARGE_SCHEDULED"
"SHO","King Mswati III International Airport","Mpaka","Eswatini","-26.358611","31.716944","large_airport","yes","82","1050.00","AUTO_PROPOSED_FROM_OURAIRPORTS_LARGE_SCHEDULED"
"DIR","Aba Tenna Dejazmach Yilma International Airport","Dire Dawa","Ethiopia","9.623549","41.855027","large_airport","yes","82","1050.00","AUTO_PROPOSED_FROM_OURAIRPORTS_LARGE_SCHEDULED"
"AWA","Hawassa International Airport","Hawassa","Ethiopia","7.100611","38.396455","large_airport","yes","82","1050.00","AUTO_PROPOSED_FROM_OURAIRPORTS_LARGE_SCHEDULED"
"JIJ","Gerad Wilwal International Airport","Jijiga","Ethiopia","9.331907","42.911811","large_airport","yes","82","1050.00","AUTO_PROPOSED_FROM_OURAIRPORTS_LARGE_SCHEDULED"
"MPN","Mount Pleasant Airport / RAF Mount Pleasant","Mount Pleasant","Falkland Islands","-51.822642","-58.445777","large_airport","yes","82","1050.00","AUTO_PROPOSED_FROM_OURAIRPORTS_LARGE_SCHEDULED"
"FAE","Vágar Airport","Vágar","Faroe Islands","62.063256","-7.275782","large_airport","yes","82","1050.00","AUTO_PROPOSED_FROM_OURAIRPORTS_LARGE_SCHEDULED"
"SUV","Nausori International Airport","Nausori","Fiji","-18.044226","178.561486","large_airport","yes","82","1050.00","AUTO_PROPOSED_FROM_OURAIRPORTS_LARGE_SCHEDULED"
"IVL","Ivalo Airport","Ivalo","Finland","68.6073","27.4053","large_airport","yes","82","1050.00","AUTO_PROPOSED_FROM_OURAIRPORTS_LARGE_SCHEDULED"
"KTT","Kittilä International Airport","Kittilä","Finland","67.700996","24.8468","large_airport","yes","82","1050.00","AUTO_PROPOSED_FROM_OURAIRPORTS_LARGE_SCHEDULED"
"KUO","Kuopio Airport","Kuopio / Siilinjärvi","Finland","63.007099","27.7978","large_airport","yes","82","1050.00","AUTO_PROPOSED_FROM_OURAIRPORTS_LARGE_SCHEDULED"
"LPP","Lappeenranta Airport","Lappeenranta","Finland","61.044601","28.144743","large_airport","yes","82","1050.00","AUTO_PROPOSED_FROM_OURAIRPORTS_LARGE_SCHEDULED"
"MHQ","Mariehamn Airport","Mariehamn","Finland","60.1222","19.898199","large_airport","yes","82","1050.00","AUTO_PROPOSED_FROM_OURAIRPORTS_LARGE_SCHEDULED"
"OUL","Oulu Airport","Oulu / Oulunsalo","Finland","64.930099","25.354601","large_airport","yes","82","1050.00","AUTO_PROPOSED_FROM_OURAIRPORTS_LARGE_SCHEDULED"
"RVN","Rovaniemi Airport","Rovaniemi","Finland","66.563327","25.829751","large_airport","yes","82","1050.00","AUTO_PROPOSED_FROM_OURAIRPORTS_LARGE_SCHEDULED"
"TMP","Tampere-Pirkkala Airport","Tampere / Pirkkala","Finland","61.414101","23.604401","large_airport","yes","82","1050.00","AUTO_PROPOSED_FROM_OURAIRPORTS_LARGE_SCHEDULED"
"TKU","Turku Airport","Turku","Finland","60.514099","22.2628","large_airport","yes","82","1050.00","AUTO_PROPOSED_FROM_OURAIRPORTS_LARGE_SCHEDULED"
"VAA","Vaasa Airport","Vaasa","Finland","63.05023","21.762543","large_airport","yes","82","1050.00","AUTO_PROPOSED_FROM_OURAIRPORTS_LARGE_SCHEDULED"
"BIA","Bastia-Poretta International airport","Bastia","France","42.5527","9.48373","large_airport","yes","82","1050.00","AUTO_PROPOSED_FROM_OURAIRPORTS_LARGE_SCHEDULED"
"BVA","Beauvais-Tillé airport","Beauvais","France","49.454399","2.11278","large_airport","yes","82","1050.00","AUTO_PROPOSED_FROM_OURAIRPORTS_LARGE_SCHEDULED"
"BOD","Bordeaux–Mérignac Airport","Bordeaux","France","44.82865","-0.715356","large_airport","yes","82","1050.00","AUTO_PROPOSED_FROM_OURAIRPORTS_LARGE_SCHEDULED"
"BES","Brest Bretagne airport","Brest","France","48.447899","-4.41854","large_airport","yes","82","1050.00","AUTO_PROPOSED_FROM_OURAIRPORTS_LARGE_SCHEDULED"
"BSL","EuroAirport Basel–Mulhouse–Freiburg","Bâle / Mulhouse","France","47.60068","7.521117","large_airport","yes","82","1050.00","AUTO_PROPOSED_FROM_OURAIRPORTS_LARGE_SCHEDULED"
"CFE","Clermont-Ferrand Auvergne airport","Clermont-Ferrand","France","45.786701","3.16917","large_airport","yes","82","1050.00","AUTO_PROPOSED_FROM_OURAIRPORTS_LARGE_SCHEDULED"
"LYS","Lyon Saint-Exupéry Airport","Colombier-Saugnieu, Rhône","France","45.725996","5.090139","large_airport","yes","82","1050.00","AUTO_PROPOSED_FROM_OURAIRPORTS_LARGE_SCHEDULED"
"FSC","Figari Sud-Corse Airport","Figari","France","41.50185","9.097092","large_airport","yes","82","1050.00","AUTO_PROPOSED_FROM_OURAIRPORTS_LARGE_SCHEDULED"
"LIL","Lille Airport","Lesquin","France","50.566564","3.102429","large_airport","yes","82","1050.00","AUTO_PROPOSED_FROM_OURAIRPORTS_LARGE_SCHEDULED"
"MRS","Marseille Provence Airport","Marignane, Bouches-du-Rhône","France","43.438088","5.2125","large_airport","yes","82","1050.00","AUTO_PROPOSED_FROM_OURAIRPORTS_LARGE_SCHEDULED"
"MPL","Montpellier-Méditerranée Airport","Montpellier/Méditerranée","France","43.576199","3.96301","large_airport","yes","82","1050.00","AUTO_PROPOSED_FROM_OURAIRPORTS_LARGE_SCHEDULED"
"NCE","Nice-Côte d'Azur Airport","Nice, Alpes-Maritimes","France","43.658401","7.21587","large_airport","yes","82","1050.00","AUTO_PROPOSED_FROM_OURAIRPORTS_LARGE_SCHEDULED"
"LBG","Paris-Le Bourget International Airport","Paris","France","48.962276","2.436539","large_airport","yes","82","1050.00","AUTO_PROPOSED_FROM_OURAIRPORTS_LARGE_SCHEDULED"
"SXB","Strasbourg Airport","Strasbourg","France","48.5383","7.62823","large_airport","yes","82","1050.00","AUTO_PROPOSED_FROM_OURAIRPORTS_LARGE_SCHEDULED"
"TLS","Toulouse-Blagnac Airport","Toulouse/Blagnac","France","43.629101","1.36382","large_airport","yes","82","1050.00","AUTO_PROPOSED_FROM_OURAIRPORTS_LARGE_SCHEDULED"
"CAY","Cayenne – Félix Eboué Airport","Matoury","French Guiana","4.819964","-52.361326","large_airport","yes","82","1050.00","AUTO_PROPOSED_FROM_OURAIRPORTS_LARGE_SCHEDULED"
"MVB","M'Vengue El Hadj Omar Bongo Ondimba International Airport","Franceville","Gabon","-1.65616","13.438","large_airport","yes","82","1050.00","AUTO_PROPOSED_FROM_OURAIRPORTS_LARGE_SCHEDULED"
"LBV","Libreville Leon M'ba International Airport","Libreville","Gabon","0.458951","9.41214","large_airport","yes","82","1050.00","AUTO_PROPOSED_FROM_OURAIRPORTS_LARGE_SCHEDULED"
"POG","Port Gentil International Airport","Port Gentil","Gabon","-0.711739","8.75438","large_airport","yes","82","1050.00","AUTO_PROPOSED_FROM_OURAIRPORTS_LARGE_SCHEDULED"
"BJL","Banjul International Airport","Banjul (Yundum)","Gambia","13.338","-16.652201","large_airport","yes","82","1050.00","AUTO_PROPOSED_FROM_OURAIRPORTS_LARGE_SCHEDULED"
"BUS","Alexander Kartveli Batumi International Airport","Batumi","Georgia","41.60939","41.600315","large_airport","yes","82","1050.00","AUTO_PROPOSED_FROM_OURAIRPORTS_LARGE_SCHEDULED"
"KUT","David the Builder Kutaisi International Airport","Kopitnari","Georgia","42.177448","42.485353","large_airport","yes","82","1050.00","AUTO_PROPOSED_FROM_OURAIRPORTS_LARGE_SCHEDULED"
"TBS","Tbilisi International Airport","Tbilisi","Georgia","41.669201","44.9547","large_airport","yes","82","1050.00","AUTO_PROPOSED_FROM_OURAIRPORTS_LARGE_SCHEDULED"
"BER","Berlin Brandenburg Airport","Berlin","Germany","52.361738","13.502341","large_airport","yes","82","1050.00","AUTO_PROPOSED_FROM_OURAIRPORTS_LARGE_SCHEDULED"
"BRE","Bremen Airport","Bremen","Germany","53.046786","8.78932","large_airport","yes","82","1050.00","AUTO_PROPOSED_FROM_OURAIRPORTS_LARGE_SCHEDULED"
"PAD","Paderborn Lippstadt Airport","Büren","Germany","51.612527","8.617459","large_airport","yes","82","1050.00","AUTO_PROPOSED_FROM_OURAIRPORTS_LARGE_SCHEDULED"
"KSF","Kassel Airport","Calden","Germany","51.418395","9.391638","large_airport","yes","82","1050.00","AUTO_PROPOSED_FROM_OURAIRPORTS_LARGE_SCHEDULED"
"DTM","Dortmund Airport","Dortmund","Germany","51.518299","7.61224","large_airport","yes","82","1050.00","AUTO_PROPOSED_FROM_OURAIRPORTS_LARGE_SCHEDULED"
"DRS","Dresden Airport","Dresden","Germany","51.134123","13.767831","large_airport","yes","82","1050.00","AUTO_PROPOSED_FROM_OURAIRPORTS_LARGE_SCHEDULED"
"DUS","Düsseldorf Airport","Düsseldorf","Germany","51.289501","6.76678","large_airport","yes","82","1050.00","AUTO_PROPOSED_FROM_OURAIRPORTS_LARGE_SCHEDULED"
"ERF","Erfurt-Weimar Airport","Erfurt","Germany","50.978281","10.960713","large_airport","yes","82","1050.00","AUTO_PROPOSED_FROM_OURAIRPORTS_LARGE_SCHEDULED"
"HHN","Frankfurt-Hahn Airport","Frankfurt am Main (Lautzenhausen)","Germany","49.946353","7.261734","large_airport","yes","82","1050.00","AUTO_PROPOSED_FROM_OURAIRPORTS_LARGE_SCHEDULED"
"FDH","Bodensee Airport Friedrichshafen","Friedrichshafen","Germany","47.671299","9.51149","large_airport","yes","82","1050.00","AUTO_PROPOSED_FROM_OURAIRPORTS_LARGE_SCHEDULED"
"FMO","Münster Osnabrück Airport","Greven","Germany","52.133816","7.688482","large_airport","yes","82","1050.00","AUTO_PROPOSED_FROM_OURAIRPORTS_LARGE_SCHEDULED"
"HAM","Hamburg Helmut Schmidt Airport","Hamburg","Germany","53.630402","9.98823","large_airport","yes","82","1050.00","AUTO_PROPOSED_FROM_OURAIRPORTS_LARGE_SCHEDULED"
"HAJ","Hannover Airport","Hannover","Germany","52.461102","9.68508","large_airport","yes","82","1050.00","AUTO_PROPOSED_FROM_OURAIRPORTS_LARGE_SCHEDULED"
"CGN","Cologne Bonn Airport","Köln (Cologne)","Germany","50.865898","7.14274","large_airport","yes","82","1050.00","AUTO_PROPOSED_FROM_OURAIRPORTS_LARGE_SCHEDULED"
"FMM","Memmingen Allgau Airport","Memmingen","Germany","47.988092","10.238248","large_airport","yes","82","1050.00","AUTO_PROPOSED_FROM_OURAIRPORTS_LARGE_SCHEDULED"
"NUE","Nuremberg Airport","Nuremberg","Germany","49.498699","11.078056","large_airport","yes","82","1050.00","AUTO_PROPOSED_FROM_OURAIRPORTS_LARGE_SCHEDULED"
"FKB","Karlsruhe Baden-Baden Airport","Rheinmünster","Germany","48.7794","8.0805","large_airport","yes","82","1050.00","AUTO_PROPOSED_FROM_OURAIRPORTS_LARGE_SCHEDULED"
"LEJ","Leipzig/Halle Airport","Schkeuditz","Germany","51.420657","12.232705","large_airport","yes","82","1050.00","AUTO_PROPOSED_FROM_OURAIRPORTS_LARGE_SCHEDULED"
"STR","Stuttgart Airport","Stuttgart","Germany","48.689899","9.22196","large_airport","yes","82","1050.00","AUTO_PROPOSED_FROM_OURAIRPORTS_LARGE_SCHEDULED"
"NRN","Weeze (Niederrhein) Airport","Weeze","Germany","51.601362","6.141228","large_airport","yes","82","1050.00","AUTO_PROPOSED_FROM_OURAIRPORTS_LARGE_SCHEDULED"
"ACC","Kotoka International Airport","Accra","Ghana","5.605189800262451","-0.16678600013256073","large_airport","yes","82","1050.00","AUTO_PROPOSED_FROM_OURAIRPORTS_LARGE_SCHEDULED"
"KMS","Prempeh I International Airport","Kumasi","Ghana","6.71456","-1.59082","large_airport","yes","82","1050.00","AUTO_PROPOSED_FROM_OURAIRPORTS_LARGE_SCHEDULED"
"TML","Yakubu Tali International Airport","Tamale","Ghana","9.553909","-0.86606","large_airport","yes","82","1050.00","AUTO_PROPOSED_FROM_OURAIRPORTS_LARGE_SCHEDULED"
"GIB","Gibraltar Airport","Gibraltar","Gibraltar","36.151679","-5.34978","large_airport","yes","82","1050.00","AUTO_PROPOSED_FROM_OURAIRPORTS_LARGE_SCHEDULED"
"HER","Heraklion International Nikos Kazantzakis Airport","Heraklion","Greece","35.339699","25.1803","large_airport","yes","82","1050.00","AUTO_PROPOSED_FROM_OURAIRPORTS_LARGE_SCHEDULED"
"KVA","Kavala Alexander the Great International Airport","Kavala","Greece","40.9133","24.6192","large_airport","yes","82","1050.00","AUTO_PROPOSED_FROM_OURAIRPORTS_LARGE_SCHEDULED"
"CFU","Corfu Ioannis Kapodistrias International Airport","Kerkyra (Corfu)","Greece","39.60145","19.912179","large_airport","yes","82","1050.00","AUTO_PROPOSED_FROM_OURAIRPORTS_LARGE_SCHEDULED"
"KGS","Kos International Airport ""Ippokratis""","Kos Island","Greece","36.794523","27.09115","large_airport","yes","82","1050.00","AUTO_PROPOSED_FROM_OURAIRPORTS_LARGE_SCHEDULED"
"RHO","Rhodes International Airport ""Diagoras""","Rhodes","Greece","36.405399","28.086201","large_airport","yes","82","1050.00","AUTO_PROPOSED_FROM_OURAIRPORTS_LARGE_SCHEDULED"
"JTR","Santorini International Airport","Santorini Island","Greece","36.400045","25.478638","large_airport","yes","82","1050.00","AUTO_PROPOSED_FROM_OURAIRPORTS_LARGE_SCHEDULED"
"CHQ","Chania International Airport","Souda","Greece","35.531207","24.150673","large_airport","yes","82","1050.00","AUTO_PROPOSED_FROM_OURAIRPORTS_LARGE_SCHEDULED"
"SKG","Thessaloniki Macedonia International Airport","Thessaloniki","Greece","40.51928","22.970009","large_airport","yes","82","1050.00","AUTO_PROPOSED_FROM_OURAIRPORTS_LARGE_SCHEDULED"
"GOH","Nuuk International Airport","Nuuk","Greenland","64.191066","-51.67914","large_airport","yes","82","1050.00","AUTO_PROPOSED_FROM_OURAIRPORTS_LARGE_SCHEDULED"
"GND","Maurice Bishop International Airport","Saint George's","Grenada","12.003996","-61.785302","large_airport","yes","82","1050.00","AUTO_PROPOSED_FROM_OURAIRPORTS_LARGE_SCHEDULED"
"PTP","Maryse Condé International Airport","Pointe-à-Pitre","Guadeloupe","16.265443","-61.532754","large_airport","yes","82","1050.00","AUTO_PROPOSED_FROM_OURAIRPORTS_LARGE_SCHEDULED"
"GUM","Antonio B. Won Pat International Airport","Hagåtña","Guam","13.485","144.797282","large_airport","yes","82","1050.00","AUTO_PROPOSED_FROM_OURAIRPORTS_LARGE_SCHEDULED"
"GUA","La Aurora International Airport","Guatemala City","Guatemala","14.582896","-90.527515","large_airport","yes","82","1050.00","AUTO_PROPOSED_FROM_OURAIRPORTS_LARGE_SCHEDULED"
"CKY","Ahmed Sékou Touré International Airport","Conakry","Guinea","9.57689","-13.612","large_airport","yes","82","1050.00","AUTO_PROPOSED_FROM_OURAIRPORTS_LARGE_SCHEDULED"
"OXB","Osvaldo Vieira International Airport","Bissau","Guinea-Bissau","11.894262","-15.653596","large_airport","yes","82","1050.00","AUTO_PROPOSED_FROM_OURAIRPORTS_LARGE_SCHEDULED"
"GEO","Cheddi Jagan International Airport","Georgetown","Guyana","6.49855","-58.254101","large_airport","yes","82","1050.00","AUTO_PROPOSED_FROM_OURAIRPORTS_LARGE_SCHEDULED"
"CAP","Cap Haitien International Airport","Cap Haitien","Haiti","19.725547","-72.20071","large_airport","yes","82","1050.00","AUTO_PROPOSED_FROM_OURAIRPORTS_LARGE_SCHEDULED"
"PAP","Toussaint Louverture International Airport","Port-au-Prince","Haiti","18.580023","-72.292596","large_airport","yes","82","1050.00","AUTO_PROPOSED_FROM_OURAIRPORTS_LARGE_SCHEDULED"
"RTB","Juan Manuel Gálvez International Airport","Coxen Hole","Honduras","16.316799","-86.523003","large_airport","yes","82","1050.00","AUTO_PROPOSED_FROM_OURAIRPORTS_LARGE_SCHEDULED"
"XPL","Palmerola International Airport","Palmerola","Honduras","14.3824","-87.621201","large_airport","yes","82","1050.00","AUTO_PROPOSED_FROM_OURAIRPORTS_LARGE_SCHEDULED"
"SAP","Ramón Villeda Morales International Airport","San Pedro Sula","Honduras","15.4526","-87.923599","large_airport","yes","82","1050.00","AUTO_PROPOSED_FROM_OURAIRPORTS_LARGE_SCHEDULED"
"BUD","Budapest Liszt Ferenc International Airport","Budapest","Hungary","47.43018","19.262393","large_airport","yes","82","1050.00","AUTO_PROPOSED_FROM_OURAIRPORTS_LARGE_SCHEDULED"
"DEB","Debrecen International Airport","Debrecen","Hungary","47.489469","21.616278","large_airport","yes","82","1050.00","AUTO_PROPOSED_FROM_OURAIRPORTS_LARGE_SCHEDULED"
"PEV","Pécs-Pogány International Airport","Pécs","Hungary","45.988891","18.242044","large_airport","yes","82","1050.00","AUTO_PROPOSED_FROM_OURAIRPORTS_LARGE_SCHEDULED"
"AEY","Akureyri International Airport","Akureyri","Iceland","65.656573","-18.072018","large_airport","yes","82","1050.00","AUTO_PROPOSED_FROM_OURAIRPORTS_LARGE_SCHEDULED"
"KEF","Keflavik International Airport","Reykjavík","Iceland","63.985001","-22.6056","large_airport","yes","82","1050.00","AUTO_PROPOSED_FROM_OURAIRPORTS_LARGE_SCHEDULED"
"ATQ","Sri Guru Ram Das Ji International Airport","Amritsar","India","31.7096","74.797302","large_airport","yes","82","1050.00","AUTO_PROPOSED_FROM_OURAIRPORTS_LARGE_SCHEDULED"
"BHO","Raja Bhoj International Airport","Bhopal","India","23.2875","77.337402","large_airport","yes","82","1050.00","AUTO_PROPOSED_FROM_OURAIRPORTS_LARGE_SCHEDULED"
"BBI","Biju Patnaik International Airport","Bhubaneswar","India","20.251021","85.814747","large_airport","yes","82","1050.00","AUTO_PROPOSED_FROM_OURAIRPORTS_LARGE_SCHEDULED"
"CCJ","Calicut International Airport","Calicut","India","11.135996","75.955152","large_airport","yes","82","1050.00","AUTO_PROPOSED_FROM_OURAIRPORTS_LARGE_SCHEDULED"
"IXC","Shaheed Bhagat Singh International Airport","Chandigarh","India","30.6735","76.788498","large_airport","yes","82","1050.00","AUTO_PROPOSED_FROM_OURAIRPORTS_LARGE_SCHEDULED"
"CJB","Coimbatore International Airport","Coimbatore","India","11.03","77.043404","large_airport","yes","82","1050.00","AUTO_PROPOSED_FROM_OURAIRPORTS_LARGE_SCHEDULED"
"GAU","Lokpriya Gopinath Bordoloi International Airport","Guwahati","India","26.106654","91.585226","large_airport","yes","82","1050.00","AUTO_PROPOSED_FROM_OURAIRPORTS_LARGE_SCHEDULED"
"HWR","Halwara International Airport","Halwara","India","30.748501","75.629799","large_airport","yes","82","1050.00","AUTO_PROPOSED_FROM_OURAIRPORTS_LARGE_SCHEDULED"
"HSS","Maharaja Agrasen International Airport","Hisar","India","29.186065","75.74142","large_airport","yes","82","1050.00","AUTO_PROPOSED_FROM_OURAIRPORTS_LARGE_SCHEDULED"
"IMF","Bir Tikendrajit International Airport","Imphal","India","24.76","93.896698","large_airport","yes","82","1050.00","AUTO_PROPOSED_FROM_OURAIRPORTS_LARGE_SCHEDULED"
"IDR","Devi Ahilya Bai Holkar International Airport","Indore","India","22.721404","75.80051","large_airport","yes","82","1050.00","AUTO_PROPOSED_FROM_OURAIRPORTS_LARGE_SCHEDULED"
"SAG","Shirdi International Airport","Kakadi","India","19.689211","74.373655","large_airport","yes","82","1050.00","AUTO_PROPOSED_FROM_OURAIRPORTS_LARGE_SCHEDULED"
"CNN","Kannur International Airport","Kannur","India","11.916343","75.544979","large_airport","yes","82","1050.00","AUTO_PROPOSED_FROM_OURAIRPORTS_LARGE_SCHEDULED"
"IXE","Mangaluru International Airport","Mangaluru","India","12.95471","74.886812","large_airport","yes","82","1050.00","AUTO_PROPOSED_FROM_OURAIRPORTS_LARGE_SCHEDULED"
"GOX","Manohar International Airport","Mopa","India","15.744257","73.860625","large_airport","yes","82","1050.00","AUTO_PROPOSED_FROM_OURAIRPORTS_LARGE_SCHEDULED"
"NAG","Dr. Babasaheb Ambedkar International Airport","Nagpur","India","21.092199","79.047203","large_airport","yes","82","1050.00","AUTO_PROPOSED_FROM_OURAIRPORTS_LARGE_SCHEDULED"
"ISK","Nashik International Airport","Nashik","India","20.119101","73.912903","large_airport","yes","82","1050.00","AUTO_PROPOSED_FROM_OURAIRPORTS_LARGE_SCHEDULED"
"NMI","Navi Mumbai International Airport","Navi Mumbai","India","18.984597","73.065253","large_airport","yes","82","1050.00","AUTO_PROPOSED_FROM_OURAIRPORTS_LARGE_SCHEDULED"
"IXZ","Veer Savarkar International Airport / INS Utkrosh","Port Blair","India","11.640194","92.72902","large_airport","yes","82","1050.00","AUTO_PROPOSED_FROM_OURAIRPORTS_LARGE_SCHEDULED"
"HSR","Rajkot International Airport","Rajkot","India","22.378824","71.039391","large_airport","yes","82","1050.00","AUTO_PROPOSED_FROM_OURAIRPORTS_LARGE_SCHEDULED"
"IXB","Bagdogra Airport","Siliguri","India","26.6812","88.328598","large_airport","yes","82","1050.00","AUTO_PROPOSED_FROM_OURAIRPORTS_LARGE_SCHEDULED"
"SXR","Sheikh ul Alam International Airport","Srinagar","India","33.987099","74.7742","large_airport","yes","82","1050.00","AUTO_PROPOSED_FROM_OURAIRPORTS_LARGE_SCHEDULED"
"STV","Surat International Airport","Surat","India","21.115531","72.743251","large_airport","yes","82","1050.00","AUTO_PROPOSED_FROM_OURAIRPORTS_LARGE_SCHEDULED"
"TRV","Thiruvananthapuram International Airport","Thiruvananthapuram","India","8.481889","76.920029","large_airport","yes","82","1050.00","AUTO_PROPOSED_FROM_OURAIRPORTS_LARGE_SCHEDULED"
"TRZ","Tiruchirappalli International Airport","Tiruchirappalli","India","10.762915","78.717741","large_airport","yes","82","1050.00","AUTO_PROPOSED_FROM_OURAIRPORTS_LARGE_SCHEDULED"
"TIR","Tirupati International Airport","Tirupati","India","13.631988","79.539869","large_airport","yes","82","1050.00","AUTO_PROPOSED_FROM_OURAIRPORTS_LARGE_SCHEDULED"
"BDQ","Vadodara International Airport","Vadodara","India","22.336201","73.226303","large_airport","yes","82","1050.00","AUTO_PROPOSED_FROM_OURAIRPORTS_LARGE_SCHEDULED"
"VNS","Lal Bahadur Shastri International Airport","Varanasi","India","25.452171","82.862549","large_airport","yes","82","1050.00","AUTO_PROPOSED_FROM_OURAIRPORTS_LARGE_SCHEDULED"
"VGA","Vijayawada International Airport","Vijayawada","India","16.530011","80.804888","large_airport","yes","82","1050.00","AUTO_PROPOSED_FROM_OURAIRPORTS_LARGE_SCHEDULED"
"VTZ","Visakhapatnam International Airport","Visakhapatnam","India","17.723506","83.227729","large_airport","yes","82","1050.00","AUTO_PROPOSED_FROM_OURAIRPORTS_LARGE_SCHEDULED"
"BDJ","Syamsudin Noor International Airport","Banjarbaru","Indonesia","-3.440112","114.761209","large_airport","yes","82","1050.00","AUTO_PROPOSED_FROM_OURAIRPORTS_LARGE_SCHEDULED"
"SOC","Adisoemarmo International Airport","Surakarta","Indonesia","-7.516044","110.757492","large_airport","yes","82","1050.00","AUTO_PROPOSED_FROM_OURAIRPORTS_LARGE_SCHEDULED"
"ABD","Abadan Ayatollah Jami International Airport","Abadan","Iran","30.367887","48.230075","large_airport","yes","82","1050.00","AUTO_PROPOSED_FROM_OURAIRPORTS_LARGE_SCHEDULED"
"AWZ","Qasem Soleimani International Airport","Ahvaz","Iran","31.3364","48.763789","large_airport","yes","82","1050.00","AUTO_PROPOSED_FROM_OURAIRPORTS_LARGE_SCHEDULED"
"BND","Bandar Abbas International Airport","Bandar Abbas","Iran","27.2183","56.3778","large_airport","yes","82","1050.00","AUTO_PROPOSED_FROM_OURAIRPORTS_LARGE_SCHEDULED"
"XBJ","Birjand International Airport","Birjand","Iran","32.896525","59.281258","large_airport","yes","82","1050.00","AUTO_PROPOSED_FROM_OURAIRPORTS_LARGE_SCHEDULED"
"IFN","Isfahan Shahid Beheshti International Airport","Isfahan","Iran","32.755142","51.883877","large_airport","yes","82","1050.00","AUTO_PROPOSED_FROM_OURAIRPORTS_LARGE_SCHEDULED"
"PYK","Payam International Airport","Karaj","Iran","35.7761","50.826698","large_airport","yes","82","1050.00","AUTO_PROPOSED_FROM_OURAIRPORTS_LARGE_SCHEDULED"
"KER","Ayatollah Hashemi Rafsanjani International Airport","Kerman","Iran","30.271276","56.949692","large_airport","yes","82","1050.00","AUTO_PROPOSED_FROM_OURAIRPORTS_LARGE_SCHEDULED"
"KIH","Kish International Airport","Kish Island","Iran","26.525427","53.980462","large_airport","yes","82","1050.00","AUTO_PROPOSED_FROM_OURAIRPORTS_LARGE_SCHEDULED"
"MHD","Mashhad International Airport","Mashhad","Iran","36.234821","59.642949","large_airport","yes","82","1050.00","AUTO_PROPOSED_FROM_OURAIRPORTS_LARGE_SCHEDULED"
"GSM","Qeshm International Airport","Qeshm(Dayrestan)","Iran","26.754639","55.902353","large_airport","yes","82","1050.00","AUTO_PROPOSED_FROM_OURAIRPORTS_LARGE_SCHEDULED"
"SYZ","Shiraz Shahid Dastghaib International Airport","Shiraz","Iran","29.5392","52.589802","large_airport","yes","82","1050.00","AUTO_PROPOSED_FROM_OURAIRPORTS_LARGE_SCHEDULED"
"TBZ","Tabriz International Airport","Tabriz","Iran","38.1339","46.235001","large_airport","yes","82","1050.00","AUTO_PROPOSED_FROM_OURAIRPORTS_LARGE_SCHEDULED"
"IKA","Imam Khomeini International Airport","Tehran","Iran","35.416099548339844","51.152198791503906","large_airport","yes","82","1050.00","AUTO_PROPOSED_FROM_OURAIRPORTS_LARGE_SCHEDULED"
"THR","Mehrabad International Airport","Tehran","Iran","35.689175","51.314392","large_airport","yes","82","1050.00","AUTO_PROPOSED_FROM_OURAIRPORTS_LARGE_SCHEDULED"
"ZAH","Zahedan International Airport","Zahedan","Iran","29.4757","60.9062","large_airport","yes","82","1050.00","AUTO_PROPOSED_FROM_OURAIRPORTS_LARGE_SCHEDULED"
"EBL","Erbil International Airport","Arbil","Iraq","36.236047","43.946615","large_airport","yes","82","1050.00","AUTO_PROPOSED_FROM_OURAIRPORTS_LARGE_SCHEDULED"
"BGW","Baghdad International Airport / New Al Muthana Air Base","Baghdad","Iraq","33.262501","44.2346","large_airport","yes","82","1050.00","AUTO_PROPOSED_FROM_OURAIRPORTS_LARGE_SCHEDULED"
"BSR","Basra International Airport","Basra","Iraq","30.549101","47.662102","large_airport","yes","82","1050.00","AUTO_PROPOSED_FROM_OURAIRPORTS_LARGE_SCHEDULED"
"KIK","Kirkuk International Airport","Kirkuk","Iraq","35.469501","44.3489","large_airport","yes","82","1050.00","AUTO_PROPOSED_FROM_OURAIRPORTS_LARGE_SCHEDULED"
"NJF","Al Najaf International Airport","Najaf","Iraq","31.991116","44.405019","large_airport","yes","82","1050.00","AUTO_PROPOSED_FROM_OURAIRPORTS_LARGE_SCHEDULED"
"NOC","Ireland West Airport Knock","Charlestown","Ireland","53.910439","-8.817002","large_airport","yes","82","1050.00","AUTO_PROPOSED_FROM_OURAIRPORTS_LARGE_SCHEDULED"
"ORK","Cork International Airport","Cork","Ireland","51.841301","-8.49111","large_airport","yes","82","1050.00","AUTO_PROPOSED_FROM_OURAIRPORTS_LARGE_SCHEDULED"
"SNN","Shannon Airport","Shannon","Ireland","52.702","-8.92482","large_airport","yes","82","1050.00","AUTO_PROPOSED_FROM_OURAIRPORTS_LARGE_SCHEDULED"
"IOM","Isle of Man Airport","Castletown","Isle of Man","54.083081","-4.623871","large_airport","yes","82","1050.00","AUTO_PROPOSED_FROM_OURAIRPORTS_LARGE_SCHEDULED"
"ETM","Ramon International Airport","Eilat","Israel","29.727009","35.014116","large_airport","yes","82","1050.00","AUTO_PROPOSED_FROM_OURAIRPORTS_LARGE_SCHEDULED"
"TLV","Ben Gurion International Airport","Tel Aviv","Israel","32.011398","34.8867","large_airport","yes","82","1050.00","AUTO_PROPOSED_FROM_OURAIRPORTS_LARGE_SCHEDULED"
"BRI","Bari Karol Wojtyła International Airport","Bari","Italy","41.138901","16.760599","large_airport","yes","82","1050.00","AUTO_PROPOSED_FROM_OURAIRPORTS_LARGE_SCHEDULED"
"BLQ","Bologna Guglielmo Marconi Airport","Bologna","Italy","44.5354","11.2887","large_airport","yes","82","1050.00","AUTO_PROPOSED_FROM_OURAIRPORTS_LARGE_SCHEDULED"
"BDS","Brindisi Airport","Brindisi","Italy","40.6576","17.947001","large_airport","yes","82","1050.00","AUTO_PROPOSED_FROM_OURAIRPORTS_LARGE_SCHEDULED"
"CAG","Cagliari Elmas Airport","Cagliari","Italy","39.251499","9.05428","large_airport","yes","82","1050.00","AUTO_PROPOSED_FROM_OURAIRPORTS_LARGE_SCHEDULED"
"VRN","Verona Villafranca Valerio Catullo Airport","Caselle (VR)","Italy","45.394955","10.887303","large_airport","yes","82","1050.00","AUTO_PROPOSED_FROM_OURAIRPORTS_LARGE_SCHEDULED"
"TRN","Turin Airport","Caselle Torinese (TO)","Italy","45.200802","7.64963","large_airport","yes","82","1050.00","AUTO_PROPOSED_FROM_OURAIRPORTS_LARGE_SCHEDULED"
"CTA","Catania-Fontanarossa Airport","Catania","Italy","37.466801","15.0664","large_airport","yes","82","1050.00","AUTO_PROPOSED_FROM_OURAIRPORTS_LARGE_SCHEDULED"
"FLR","Florence Airport, Peretola","Firenze (FI)","Italy","43.808558","11.202822","large_airport","yes","82","1050.00","AUTO_PROPOSED_FROM_OURAIRPORTS_LARGE_SCHEDULED"
"GOA","Genoa Cristoforo Colombo Airport","Genova (GE)","Italy","44.412039","8.840732","large_airport","yes","82","1050.00","AUTO_PROPOSED_FROM_OURAIRPORTS_LARGE_SCHEDULED"
"SUF","Lamezia Terme Sant'Eufemia International Airport","Lamezia Terme (CZ)","Italy","38.906214","16.246007","large_airport","yes","82","1050.00","AUTO_PROPOSED_FROM_OURAIRPORTS_LARGE_SCHEDULED"
"NAP","Naples International Airport","Napoli","Italy","40.886002","14.2908","large_airport","yes","82","1050.00","AUTO_PROPOSED_FROM_OURAIRPORTS_LARGE_SCHEDULED"
"OLB","Olbia Costa Smeralda Airport","Olbia (SS)","Italy","40.898953","9.518457","large_airport","yes","82","1050.00","AUTO_PROPOSED_FROM_OURAIRPORTS_LARGE_SCHEDULED"
"BGY","Il Caravaggio International Airport","Orio al Serio (BG)","Italy","45.669362","9.708851","large_airport","yes","82","1050.00","AUTO_PROPOSED_FROM_OURAIRPORTS_LARGE_SCHEDULED"
"PMO","Falcone–Borsellino Airport","Palermo","Italy","38.175999","13.091","large_airport","yes","82","1050.00","AUTO_PROPOSED_FROM_OURAIRPORTS_LARGE_SCHEDULED"
"PEG","Perugia San Francesco d'Assisi – Umbria International Airport","Perugia (PG)","Italy","43.095901","12.5132","large_airport","yes","82","1050.00","AUTO_PROPOSED_FROM_OURAIRPORTS_LARGE_SCHEDULED"
"PSR","Abruzzo Airport","Pescara","Italy","42.431079","14.182981","large_airport","yes","82","1050.00","AUTO_PROPOSED_FROM_OURAIRPORTS_LARGE_SCHEDULED"
"PSA","Pisa International Airport","Pisa (PI)","Italy","43.683899","10.3927","large_airport","yes","82","1050.00","AUTO_PROPOSED_FROM_OURAIRPORTS_LARGE_SCHEDULED"
"RMI","Federico Fellini International Airport","Rimini (RN)","Italy","44.020024","12.612198","large_airport","yes","82","1050.00","AUTO_PROPOSED_FROM_OURAIRPORTS_LARGE_SCHEDULED"
"CIA","Ciampino–G. B. Pastine International Airport","Rome","Italy","41.798769","12.595331","large_airport","yes","82","1050.00","AUTO_PROPOSED_FROM_OURAIRPORTS_LARGE_SCHEDULED"
"TRS","Trieste Airport","Ronchi dei Legionari/Trieste","Italy","45.827862","13.466672","large_airport","yes","82","1050.00","AUTO_PROPOSED_FROM_OURAIRPORTS_LARGE_SCHEDULED"
"LIN","Milano Linate Airport","Segrate (MI)","Italy","45.445099","9.27674","large_airport","yes","82","1050.00","AUTO_PROPOSED_FROM_OURAIRPORTS_LARGE_SCHEDULED"
"TSF","Treviso Airport","Treviso (TV)","Italy","45.648399","12.1944","large_airport","yes","82","1050.00","AUTO_PROPOSED_FROM_OURAIRPORTS_LARGE_SCHEDULED"
"VCE","Venice Marco Polo Airport","Venezia (VE)","Italy","45.505299","12.3519","large_airport","yes","82","1050.00","AUTO_PROPOSED_FROM_OURAIRPORTS_LARGE_SCHEDULED"
"KIN","Norman Manley International Airport","Kingston","Jamaica","17.935699462890625","-76.7874984741211","large_airport","yes","82","1050.00","AUTO_PROPOSED_FROM_OURAIRPORTS_LARGE_SCHEDULED"
"MBJ","Sangster International Airport","Montego Bay","Jamaica","18.50342","-77.91323","large_airport","yes","82","1050.00","AUTO_PROPOSED_FROM_OURAIRPORTS_LARGE_SCHEDULED"
"AOJ","Aomori Airport","Aomori","Japan","40.733777","140.689477","large_airport","yes","82","1050.00","AUTO_PROPOSED_FROM_OURAIRPORTS_LARGE_SCHEDULED"
"HKD","Hakodate Airport","Hakodate","Japan","41.77","140.822006","large_airport","yes","82","1050.00","AUTO_PROPOSED_FROM_OURAIRPORTS_LARGE_SCHEDULED"
"KKJ","Kitakyushu Airport","Kitakyushu","Japan","33.845901","131.035004","large_airport","yes","82","1050.00","AUTO_PROPOSED_FROM_OURAIRPORTS_LARGE_SCHEDULED"
"UKB","Kobe Airport","Kobe","Japan","34.632801","135.223999","large_airport","yes","82","1050.00","AUTO_PROPOSED_FROM_OURAIRPORTS_LARGE_SCHEDULED"
"FSZ","Mount Fuji Shizuoka Airport","Makinohara / Shimada","Japan","34.795022","138.190976","large_airport","yes","82","1050.00","AUTO_PROPOSED_FROM_OURAIRPORTS_LARGE_SCHEDULED"
"KMI","Miyazaki Airport","Miyazaki","Japan","31.877199","131.449005","large_airport","yes","82","1050.00","AUTO_PROPOSED_FROM_OURAIRPORTS_LARGE_SCHEDULED"
"NGS","Nagasaki Airport","Nagasaki","Japan","32.916901","129.914001","large_airport","yes","82","1050.00","AUTO_PROPOSED_FROM_OURAIRPORTS_LARGE_SCHEDULED"
"KCZ","Kochi Ryoma Airport","Nankoku","Japan","33.545217","133.670166","large_airport","yes","82","1050.00","AUTO_PROPOSED_FROM_OURAIRPORTS_LARGE_SCHEDULED"
"KIJ","Niigata Airport","Niigata","Japan","37.954166","139.112189","large_airport","yes","82","1050.00","AUTO_PROPOSED_FROM_OURAIRPORTS_LARGE_SCHEDULED"
"OKJ","Okayama Momotaro Airport","Okayama","Japan","34.756901","133.854996","large_airport","yes","82","1050.00","AUTO_PROPOSED_FROM_OURAIRPORTS_LARGE_SCHEDULED"
"IBR","Ibaraki Airport","Omitama","Japan","36.181456","140.414434","large_airport","yes","82","1050.00","AUTO_PROPOSED_FROM_OURAIRPORTS_LARGE_SCHEDULED"
"HSG","Kyushu Saga International Airport","Saga","Japan","33.1497","130.302002","large_airport","yes","82","1050.00","AUTO_PROPOSED_FROM_OURAIRPORTS_LARGE_SCHEDULED"
"TAK","Takamatsu Airport","Takamatsu","Japan","34.214963","134.015454","large_airport","yes","82","1050.00","AUTO_PROPOSED_FROM_OURAIRPORTS_LARGE_SCHEDULED"
"TKS","Tokushima Awaodori Airport / JMSDF Tokushima Air Base","Tokushima","Japan","34.132559","134.607816","large_airport","yes","82","1050.00","AUTO_PROPOSED_FROM_OURAIRPORTS_LARGE_SCHEDULED"
"ADJ","Marka International (Amman Civil) Airport","Amman","Jordan","31.9727","35.9916","large_airport","yes","82","1050.00","AUTO_PROPOSED_FROM_OURAIRPORTS_LARGE_SCHEDULED"
"AQJ","King Hussein International Airport","Aqaba","Jordan","29.611601","35.018101","large_airport","yes","82","1050.00","AUTO_PROPOSED_FROM_OURAIRPORTS_LARGE_SCHEDULED"
"SCO","Aktau International Airport","Aktau","Kazakhstan","43.860093","51.09086","large_airport","yes","82","1050.00","AUTO_PROPOSED_FROM_OURAIRPORTS_LARGE_SCHEDULED"
"AKX","Aktobe International Airport","Aktobe","Kazakhstan","50.248116","57.204144","large_airport","yes","82","1050.00","AUTO_PROPOSED_FROM_OURAIRPORTS_LARGE_SCHEDULED"
"ALA","Almaty International Airport","Almaty","Kazakhstan","43.354267","77.042828","large_airport","yes","82","1050.00","AUTO_PROPOSED_FROM_OURAIRPORTS_LARGE_SCHEDULED"
"NQZ","Nursultan Nazarbayev International Airport","Astana","Kazakhstan","51.027035","71.467094","large_airport","yes","82","1050.00","AUTO_PROPOSED_FROM_OURAIRPORTS_LARGE_SCHEDULED"
"GUW","Atyrau International Airport","Atyrau","Kazakhstan","47.121318","51.820343","large_airport","yes","82","1050.00","AUTO_PROPOSED_FROM_OURAIRPORTS_LARGE_SCHEDULED"
"BXY","Baikonur Krayniy International Airport","Baikonur","Kazakhstan","45.621994","63.210773","large_airport","yes","82","1050.00","AUTO_PROPOSED_FROM_OURAIRPORTS_LARGE_SCHEDULED"
"KGF","Sary-Arka Airport","Karaganda","Kazakhstan","49.670799","73.334396","large_airport","yes","82","1050.00","AUTO_PROPOSED_FROM_OURAIRPORTS_LARGE_SCHEDULED"
"KOV","Kokshetau International Airport","Kokshetau","Kazakhstan","53.329102","69.594597","large_airport","yes","82","1050.00","AUTO_PROPOSED_FROM_OURAIRPORTS_LARGE_SCHEDULED"
"KSN","Kostanay International Airport","Kostanay","Kazakhstan","53.206902","63.550301","large_airport","yes","82","1050.00","AUTO_PROPOSED_FROM_OURAIRPORTS_LARGE_SCHEDULED"
"KZO","Korkyt Ata International Airport","Kyzylorda","Kazakhstan","44.706902","65.592499","large_airport","yes","82","1050.00","AUTO_PROPOSED_FROM_OURAIRPORTS_LARGE_SCHEDULED"
"PWQ","Pavlodar International Airport","Pavlodar","Kazakhstan","52.194982","77.073088","large_airport","yes","82","1050.00","AUTO_PROPOSED_FROM_OURAIRPORTS_LARGE_SCHEDULED"
"PPK","Petropavl International Airport","Petropavl","Kazakhstan","54.775622","69.187415","large_airport","yes","82","1050.00","AUTO_PROPOSED_FROM_OURAIRPORTS_LARGE_SCHEDULED"
"PLX","Semei International Airport","Semey","Kazakhstan","50.351295","80.234398","large_airport","yes","82","1050.00","AUTO_PROPOSED_FROM_OURAIRPORTS_LARGE_SCHEDULED"
"CIT","Shymkent International Airport","Shymkent","Kazakhstan","42.365021","69.47564","large_airport","yes","82","1050.00","AUTO_PROPOSED_FROM_OURAIRPORTS_LARGE_SCHEDULED"
"DMB","Taraz International Airport","Taraz","Kazakhstan","42.8536","71.303596","large_airport","yes","82","1050.00","AUTO_PROPOSED_FROM_OURAIRPORTS_LARGE_SCHEDULED"
"HSA","Hazrat Sultan International Airport","Turkıstan","Kazakhstan","43.311087","68.550352","large_airport","yes","82","1050.00","AUTO_PROPOSED_FROM_OURAIRPORTS_LARGE_SCHEDULED"
"URA","Manshuk Mametova International Airport","Uralsk","Kazakhstan","51.151976","51.543652","large_airport","yes","82","1050.00","AUTO_PROPOSED_FROM_OURAIRPORTS_LARGE_SCHEDULED"
"UKK","Oskemen International Airport","Ust-Kamenogorsk (Oskemen)","Kazakhstan","50.035033","82.496057","large_airport","yes","82","1050.00","AUTO_PROPOSED_FROM_OURAIRPORTS_LARGE_SCHEDULED"
"DZN","Zhezkazgan National Airport","Zhezkazgan","Kazakhstan","47.708953","67.738094","large_airport","yes","82","1050.00","AUTO_PROPOSED_FROM_OURAIRPORTS_LARGE_SCHEDULED"
"EDL","Eldoret International Airport","Eldoret","Kenya","0.404458","35.238899","large_airport","yes","82","1050.00","AUTO_PROPOSED_FROM_OURAIRPORTS_LARGE_SCHEDULED"
"KIS","Kisumu International Airport","Kisumu","Kenya","-0.086139","34.728901","large_airport","yes","82","1050.00","AUTO_PROPOSED_FROM_OURAIRPORTS_LARGE_SCHEDULED"
"MBA","Moi International Airport","Mombasa","Kenya","-4.03483","39.5942","large_airport","yes","82","1050.00","AUTO_PROPOSED_FROM_OURAIRPORTS_LARGE_SCHEDULED"
"CXI","Cassidy International Airport","Kiritimati","Kiribati","1.986278","-157.350011","large_airport","yes","82","1050.00","AUTO_PROPOSED_FROM_OURAIRPORTS_LARGE_SCHEDULED"
"TRW","Bonriki International Airport","South Tarawa","Kiribati","1.38164","173.147003","large_airport","yes","82","1050.00","AUTO_PROPOSED_FROM_OURAIRPORTS_LARGE_SCHEDULED"
"PRN","Priština Adem Jashari International Airport","Prishtina","Kosovo","42.5728","21.035801","large_airport","yes","82","1050.00","AUTO_PROPOSED_FROM_OURAIRPORTS_LARGE_SCHEDULED"
"BSZ","Manas International Airport","Bishkek","Kyrgyzstan","43.061298","74.4776","large_airport","yes","82","1050.00","AUTO_PROPOSED_FROM_OURAIRPORTS_LARGE_SCHEDULED"
"OSS","Osh International Airport","Osh","Kyrgyzstan","40.609001","72.793297","large_airport","yes","82","1050.00","AUTO_PROPOSED_FROM_OURAIRPORTS_LARGE_SCHEDULED"
"IKU","Issyk-Kul International Airport","Tamchy","Kyrgyzstan","42.585584","76.701181","large_airport","yes","82","1050.00","AUTO_PROPOSED_FROM_OURAIRPORTS_LARGE_SCHEDULED"
"RIX","Riga International Airport","Riga","Latvia","56.920752","23.970711","large_airport","yes","82","1050.00","AUTO_PROPOSED_FROM_OURAIRPORTS_LARGE_SCHEDULED"
"MSU","Moshoeshoe I International Airport","Maseru(Mazenod)","Lesotho","-29.456277","27.554456","large_airport","yes","82","1050.00","AUTO_PROPOSED_FROM_OURAIRPORTS_LARGE_SCHEDULED"
"ROB","Roberts International Airport","Monrovia","Liberia","6.23379","-10.3623","large_airport","yes","82","1050.00","AUTO_PROPOSED_FROM_OURAIRPORTS_LARGE_SCHEDULED"
"LAQ","Al Abraq International Airport","Al Albraq","Libya","32.789036","21.954864","large_airport","yes","82","1050.00","AUTO_PROPOSED_FROM_OURAIRPORTS_LARGE_SCHEDULED"
"BEN","Benina International Airport","Benina","Libya","32.096802","20.269501","large_airport","yes","82","1050.00","AUTO_PROPOSED_FROM_OURAIRPORTS_LARGE_SCHEDULED"
"MJI","Mitiga International Airport","Tripoli","Libya","32.89177","13.287878","large_airport","yes","82","1050.00","AUTO_PROPOSED_FROM_OURAIRPORTS_LARGE_SCHEDULED"
"KUN","Kaunas International Airport","Kaunas","Lithuania","54.963965","24.08582","large_airport","yes","82","1050.00","AUTO_PROPOSED_FROM_OURAIRPORTS_LARGE_SCHEDULED"
"PLQ","Palanga International Airport","Palanga","Lithuania","55.973202","21.093901","large_airport","yes","82","1050.00","AUTO_PROPOSED_FROM_OURAIRPORTS_LARGE_SCHEDULED"
"VNO","Vilnius International Airport","Vilnius","Lithuania","54.634102","25.285801","large_airport","yes","82","1050.00","AUTO_PROPOSED_FROM_OURAIRPORTS_LARGE_SCHEDULED"
"LUX","Luxembourg-Findel International Airport","Luxembourg","Luxembourg","49.626845","6.212134","large_airport","yes","82","1050.00","AUTO_PROPOSED_FROM_OURAIRPORTS_LARGE_SCHEDULED"
"TNR","Ivato International Airport","Antananarivo","Madagascar","-18.7969","47.478802","large_airport","yes","82","1050.00","AUTO_PROPOSED_FROM_OURAIRPORTS_LARGE_SCHEDULED"
"MJN","Amborovy Airport","Mahajanga","Madagascar","-15.666842","46.351233","large_airport","yes","82","1050.00","AUTO_PROPOSED_FROM_OURAIRPORTS_LARGE_SCHEDULED"
"NOS","Nosy Be International Airport","Nosy Be","Madagascar","-13.3121","48.3148","large_airport","yes","82","1050.00","AUTO_PROPOSED_FROM_OURAIRPORTS_LARGE_SCHEDULED"
"TMM","Toamasina Ambalamanasy Airport","Toamasina","Madagascar","-18.113537","49.392262","large_airport","yes","82","1050.00","AUTO_PROPOSED_FROM_OURAIRPORTS_LARGE_SCHEDULED"
"BLZ","Chileka International Airport","Blantyre","Malawi","-15.677189","34.972319","large_airport","yes","82","1050.00","AUTO_PROPOSED_FROM_OURAIRPORTS_LARGE_SCHEDULED"
"LLW","Kamuzu International Airport","Lumbadzi","Malawi","-13.7894","33.780998","large_airport","yes","82","1050.00","AUTO_PROPOSED_FROM_OURAIRPORTS_LARGE_SCHEDULED"
"GAN","Gan International Airport","Gan","Maldives","-0.692975","73.152627","large_airport","yes","82","1050.00","AUTO_PROPOSED_FROM_OURAIRPORTS_LARGE_SCHEDULED"
"HAQ","Hanimaadhoo International Airport","Haa Dhaalu Atoll","Maldives","6.743235","73.167072","large_airport","yes","82","1050.00","AUTO_PROPOSED_FROM_OURAIRPORTS_LARGE_SCHEDULED"
"MLE","Velana International Airport","Malé","Maldives","4.19183","73.529099","large_airport","yes","82","1050.00","AUTO_PROPOSED_FROM_OURAIRPORTS_LARGE_SCHEDULED"
"NMF","Maafaru International Airport","Noonu Atoll","Maldives","5.817407","73.468404","large_airport","yes","82","1050.00","AUTO_PROPOSED_FROM_OURAIRPORTS_LARGE_SCHEDULED"
"BKO","Modibo Keita International Airport","Bamako","Mali","12.5335","-7.94994","large_airport","yes","82","1050.00","AUTO_PROPOSED_FROM_OURAIRPORTS_LARGE_SCHEDULED"
"TOM","Tombouktou Airport","Timbuktu","Mali","16.730499","-3.00758","large_airport","yes","82","1050.00","AUTO_PROPOSED_FROM_OURAIRPORTS_LARGE_SCHEDULED"
"MLA","Malta International Airport","Valletta","Malta","35.845932","14.491546","large_airport","yes","82","1050.00","AUTO_PROPOSED_FROM_OURAIRPORTS_LARGE_SCHEDULED"
"MAJ","Marshall Islands International Airport","Majuro Atoll","Marshall Islands","7.06511","171.271656","large_airport","yes","82","1050.00","AUTO_PROPOSED_FROM_OURAIRPORTS_LARGE_SCHEDULED"
"FDF","Martinique Aimé Césaire International Airport","Fort-de-France","Martinique","14.591","-61.003201","large_airport","yes","82","1050.00","AUTO_PROPOSED_FROM_OURAIRPORTS_LARGE_SCHEDULED"
"NDB","Nouadhibou International Airport","Nouadhibou","Mauritania","20.932404","-17.030199","large_airport","yes","82","1050.00","AUTO_PROPOSED_FROM_OURAIRPORTS_LARGE_SCHEDULED"
"NKC","Nouakchott–Oumtounsy International Airport","Nouakchott","Mauritania","18.31","-15.969722","large_airport","yes","82","1050.00","AUTO_PROPOSED_FROM_OURAIRPORTS_LARGE_SCHEDULED"
"MRU","Sir Seewoosagur Ramgoolam International Airport","Plaine Magnien","Mauritius","-20.430201","57.683601","large_airport","yes","82","1050.00","AUTO_PROPOSED_FROM_OURAIRPORTS_LARGE_SCHEDULED"
"DZA","Dzaoudzi Pamandzi International Airport","Dzaoudzi","Mayotte","-12.809319","45.281815","large_airport","yes","82","1050.00","AUTO_PROPOSED_FROM_OURAIRPORTS_LARGE_SCHEDULED"
"ACA","General Juan N. Álvarez International Airport","Acapulco","Mexico","16.757126","-99.753113","large_airport","yes","82","1050.00","AUTO_PROPOSED_FROM_OURAIRPORTS_LARGE_SCHEDULED"
"AGU","Aguascalientes International Airport","Aguascalientes","Mexico","21.699589","-102.318372","large_airport","yes","82","1050.00","AUTO_PROPOSED_FROM_OURAIRPORTS_LARGE_SCHEDULED"
"CUU","General Roberto Fierro Villalobos International Airport","Chihuahua","Mexico","28.702649","-105.963764","large_airport","yes","82","1050.00","AUTO_PROPOSED_FROM_OURAIRPORTS_LARGE_SCHEDULED"
"CJS","Abraham González International Airport","Ciudad Juárez","Mexico","31.636673","-106.428533","large_airport","yes","82","1050.00","AUTO_PROPOSED_FROM_OURAIRPORTS_LARGE_SCHEDULED"
"CZM","Cozumel International Airport","Cozumel","Mexico","20.514922","-86.928538","large_airport","yes","82","1050.00","AUTO_PROPOSED_FROM_OURAIRPORTS_LARGE_SCHEDULED"
"CUL","Bachigualato Federal International Airport","Culiacán","Mexico","24.76504","-107.475228","large_airport","yes","82","1050.00","AUTO_PROPOSED_FROM_OURAIRPORTS_LARGE_SCHEDULED"
"GDL","Guadalajara International Airport","Guadalajara","Mexico","20.523342","-103.310108","large_airport","yes","82","1050.00","AUTO_PROPOSED_FROM_OURAIRPORTS_LARGE_SCHEDULED"
"HMO","General Ignacio L. Pesqueira International Airport","Hermosillo","Mexico","29.092811","-111.053015","large_airport","yes","82","1050.00","AUTO_PROPOSED_FROM_OURAIRPORTS_LARGE_SCHEDULED"
"HUX","Bahías de Huatulco International Airport","Huatulco","Mexico","15.775437","-96.260456","large_airport","yes","82","1050.00","AUTO_PROPOSED_FROM_OURAIRPORTS_LARGE_SCHEDULED"
"ZIH","Ixtapa-Zihuatanejo International Airport","Ixtapa","Mexico","17.601771","-101.460629","large_airport","yes","82","1050.00","AUTO_PROPOSED_FROM_OURAIRPORTS_LARGE_SCHEDULED"
"LTO","Loreto International Airport","Loreto","Mexico","25.989549","-111.348408","large_airport","yes","82","1050.00","AUTO_PROPOSED_FROM_OURAIRPORTS_LARGE_SCHEDULED"
"MZT","General Rafael Buelna International Airport","Mazatlàn","Mexico","23.162823","-106.264517","large_airport","yes","82","1050.00","AUTO_PROPOSED_FROM_OURAIRPORTS_LARGE_SCHEDULED"
"NLU","Felipe Ángeles International Airport","Mexico City","Mexico","19.743824","-99.01507","large_airport","yes","82","1050.00","AUTO_PROPOSED_FROM_OURAIRPORTS_LARGE_SCHEDULED"
"MTY","Monterrey International Airport","Monterrey","Mexico","25.778521","-100.106989","large_airport","yes","82","1050.00","AUTO_PROPOSED_FROM_OURAIRPORTS_LARGE_SCHEDULED"
"MLM","General Francisco J. Mujica International Airport","Morelia","Mexico","19.849899","-101.025002","large_airport","yes","82","1050.00","AUTO_PROPOSED_FROM_OURAIRPORTS_LARGE_SCHEDULED"
"MID","Manuel Crescencio Rejón International Airport","Mérida","Mexico","20.930485","-89.645462","large_airport","yes","82","1050.00","AUTO_PROPOSED_FROM_OURAIRPORTS_LARGE_SCHEDULED"
"OAX","Xoxocotlán International Airport","Oaxaca","Mexico","16.998773","-96.726092","large_airport","yes","82","1050.00","AUTO_PROPOSED_FROM_OURAIRPORTS_LARGE_SCHEDULED"
"PBC","Hermanos Serdán International Airport","Puebla","Mexico","19.158465","-98.371582","large_airport","yes","82","1050.00","AUTO_PROPOSED_FROM_OURAIRPORTS_LARGE_SCHEDULED"
"PVR","Puerto Vallarta International Airport","Puerto Vallarta","Mexico","20.679913","-105.254391","large_airport","yes","82","1050.00","AUTO_PROPOSED_FROM_OURAIRPORTS_LARGE_SCHEDULED"
"QRO","Querétaro Intercontinental Airport","Querétaro","Mexico","20.618779","-100.186449","large_airport","yes","82","1050.00","AUTO_PROPOSED_FROM_OURAIRPORTS_LARGE_SCHEDULED"
"SJD","Los Cabos International Airport","San José del Cabo","Mexico","23.151919","-109.720731","large_airport","yes","82","1050.00","AUTO_PROPOSED_FROM_OURAIRPORTS_LARGE_SCHEDULED"
"BJX","Guanajuato International Airport","Silao","Mexico","20.992695","-101.480284","large_airport","yes","82","1050.00","AUTO_PROPOSED_FROM_OURAIRPORTS_LARGE_SCHEDULED"
"TIJ","General Abelardo L. Rodriguez International Airport","Tijuana","Mexico","32.541043","-116.969976","large_airport","yes","82","1050.00","AUTO_PROPOSED_FROM_OURAIRPORTS_LARGE_SCHEDULED"
"TLC","Adolfo López Mateos International Airport","Toluca","Mexico","19.3369","-99.56583","large_airport","yes","82","1050.00","AUTO_PROPOSED_FROM_OURAIRPORTS_LARGE_SCHEDULED"
"TQO","Felipe Carrillo Puerto International Airport Tulum","Tulum","Mexico","20.172098","-87.660272","large_airport","yes","82","1050.00","AUTO_PROPOSED_FROM_OURAIRPORTS_LARGE_SCHEDULED"
"VER","General Heriberto Jara International Airport","Veracruz","Mexico","19.139589","-96.188602","large_airport","yes","82","1050.00","AUTO_PROPOSED_FROM_OURAIRPORTS_LARGE_SCHEDULED"
"VSA","Carlos Rovirosa Pérez International Airport","Villahermosa","Mexico","17.994283","-92.818199","large_airport","yes","82","1050.00","AUTO_PROPOSED_FROM_OURAIRPORTS_LARGE_SCHEDULED"
"KSA","Kosrae International Airport","Okat","Micronesia","5.35698","162.957993","large_airport","yes","82","1050.00","AUTO_PROPOSED_FROM_OURAIRPORTS_LARGE_SCHEDULED"
"TKK","Chuuk International Airport","Weno Island","Micronesia","7.46187","151.843002","large_airport","yes","82","1050.00","AUTO_PROPOSED_FROM_OURAIRPORTS_LARGE_SCHEDULED"
"YAP","Yap International Airport","Yap Island","Micronesia","9.49891","138.082993","large_airport","yes","82","1050.00","AUTO_PROPOSED_FROM_OURAIRPORTS_LARGE_SCHEDULED"
"RMO","Chişinău International Airport","Chişinău","Moldova","46.92774","28.931704","large_airport","yes","82","1050.00","AUTO_PROPOSED_FROM_OURAIRPORTS_LARGE_SCHEDULED"
"UBN","Ulaanbaatar Chinggis Khaan International Airport","Ulaanbaatar (Sergelen)","Mongolia","47.646916","106.819833","large_airport","yes","82","1050.00","AUTO_PROPOSED_FROM_OURAIRPORTS_LARGE_SCHEDULED"
"TGD","Podgorica Airport / Podgorica Golubovci Airbase","Podgorica","Montenegro","42.359402","19.2519","large_airport","yes","82","1050.00","AUTO_PROPOSED_FROM_OURAIRPORTS_LARGE_SCHEDULED"
"MNI","John A. Osborne Airport","Gerald's Park","Montserrat","16.791835","-62.193204","large_airport","yes","82","1050.00","AUTO_PROPOSED_FROM_OURAIRPORTS_LARGE_SCHEDULED"
"AGA","Al Massira Airport","Agadir (Temsia)","Morocco","30.322478","-9.412003","large_airport","yes","82","1050.00","AUTO_PROPOSED_FROM_OURAIRPORTS_LARGE_SCHEDULED"
"OUD","Oujda Angads Airport","Ahl Angad","Morocco","34.789558","-1.926041","large_airport","yes","82","1050.00","AUTO_PROPOSED_FROM_OURAIRPORTS_LARGE_SCHEDULED"
"NDR","Nador Al Aaroui International Airport","Al Aaroui","Morocco","34.9888","-3.02821","large_airport","yes","82","1050.00","AUTO_PROPOSED_FROM_OURAIRPORTS_LARGE_SCHEDULED"
"RAK","Marrakesh Menara Airport","Marrakesh","Morocco","31.604807","-8.035788","large_airport","yes","82","1050.00","AUTO_PROPOSED_FROM_OURAIRPORTS_LARGE_SCHEDULED"
"OZZ","Ouarzazate International Airport","Ouarzazate","Morocco","30.9391","-6.90943","large_airport","yes","82","1050.00","AUTO_PROPOSED_FROM_OURAIRPORTS_LARGE_SCHEDULED"
"BEM","Beni Mellal Airport","Oulad Yaich","Morocco","32.401895","-6.315905","large_airport","yes","82","1050.00","AUTO_PROPOSED_FROM_OURAIRPORTS_LARGE_SCHEDULED"
"RBA","Rabat-Salé Airport","Rabat","Morocco","34.051498","-6.75152","large_airport","yes","82","1050.00","AUTO_PROPOSED_FROM_OURAIRPORTS_LARGE_SCHEDULED"
"FEZ","Fes Saïss International Airport","Saïss","Morocco","33.927299","-4.97796","large_airport","yes","82","1050.00","AUTO_PROPOSED_FROM_OURAIRPORTS_LARGE_SCHEDULED"
"TNG","Tangier Ibn Battuta Airport","Tangier","Morocco","35.731741","-5.921459","large_airport","yes","82","1050.00","AUTO_PROPOSED_FROM_OURAIRPORTS_LARGE_SCHEDULED"
"TTU","Sania Ramel Airport","Tétouan","Morocco","35.594299","-5.32002","large_airport","yes","82","1050.00","AUTO_PROPOSED_FROM_OURAIRPORTS_LARGE_SCHEDULED"
"OZG","Zagora Airport","Zagora","Morocco","30.265788","-5.860808","large_airport","yes","82","1050.00","AUTO_PROPOSED_FROM_OURAIRPORTS_LARGE_SCHEDULED"
"BEW","Beira International Airport","Beira","Mozambique","-19.7964","34.9076","large_airport","yes","82","1050.00","AUTO_PROPOSED_FROM_OURAIRPORTS_LARGE_SCHEDULED"
"MPM","Maputo Airport","Maputo","Mozambique","-25.920799","32.572601","large_airport","yes","82","1050.00","AUTO_PROPOSED_FROM_OURAIRPORTS_LARGE_SCHEDULED"
"APL","Nampula Airport","Nampula","Mozambique","-15.1056","39.281799","large_airport","yes","82","1050.00","AUTO_PROPOSED_FROM_OURAIRPORTS_LARGE_SCHEDULED"
"TET","Tete Airport","Tete","Mozambique","-16.104799","33.640202","large_airport","yes","82","1050.00","AUTO_PROPOSED_FROM_OURAIRPORTS_LARGE_SCHEDULED"
"WVB","Walvis Bay International Airport","Walvis Bay(Rooikop)","Namibia","-22.979332","14.647102","large_airport","yes","82","1050.00","AUTO_PROPOSED_FROM_OURAIRPORTS_LARGE_SCHEDULED"
"WDH","Hosea Kutako International Airport","Windhoek","Namibia","-22.4799","17.4709","large_airport","yes","82","1050.00","AUTO_PROPOSED_FROM_OURAIRPORTS_LARGE_SCHEDULED"
"KTM","Tribhuvan International Airport","Kathmandu","Nepal","27.6966","85.3591","large_airport","yes","82","1050.00","AUTO_PROPOSED_FROM_OURAIRPORTS_LARGE_SCHEDULED"
"PHH","Pokhara International Airport","Pokhara","Nepal","28.1838","84.0147","large_airport","yes","82","1050.00","AUTO_PROPOSED_FROM_OURAIRPORTS_LARGE_SCHEDULED"
"BWA","Gautam Buddha International Airport","Siddharthanagar (Bhairahawa)","Nepal","27.504636","83.410381","large_airport","yes","82","1050.00","AUTO_PROPOSED_FROM_OURAIRPORTS_LARGE_SCHEDULED"
"EIN","Eindhoven Airport","Eindhoven","Netherlands","51.4500999451","5.37452983856","large_airport","yes","82","1050.00","AUTO_PROPOSED_FROM_OURAIRPORTS_LARGE_SCHEDULED"
